{"values":[{"point":{"lat":45.503289,"lng":-73.830983},"locationName":"04911 BASTIEN","gravity":"Dommages matériels seulement","totalNumberOfVictims":0,"numberOfPedestrian":null,"numberOfCyclists":0,"weather":14,"date":"2015-04-02"},{"point":{"lat":45.482432,"lng":-73.868739},"locationName":"15615 GOUIN","gravity":"Léger","totalNumberOfVictims":1,"numberOfPedestrian":null,"numberOfCyclists":0,"weather":11,"date":"2015-02-16"},{"point":{"lat":45.507064,"lng":-73.795621},"locationName":"10306 GOUIN O","gravity":"Dommages matériels seulement","totalNumberOfVictims":0,"numberOfPedestrian":null,"numberOfCyclists":0,"weather":17,"date":"2015-01-09"},{"point":{"lat":45.473732,"lng":-73.694511},"locationName":"04500 HICKMORE","gravity":"Dommages matériels seulement","totalNumberOfVictims":0,"numberOfPedestrian":null,"numberOfCyclists":0,"weather":11,"date":"2015-01-02"},{"point":{"lat":45.483603,"lng":-73.860174},"locationName":"14920 PIERREFONDS","gravity":"Léger","totalNumberOfVictims":1,"numberOfPedestrian":null,"numberOfCyclists":0,"weather":11,"date":"2015-01-27"},{"point":{"lat":45.506412,"lng":-73.793216},"locationName":"09880 GOUIN O","gravity":"Dommages matériels seulement","totalNumberOfVictims":0,"numberOfPedestrian":null,"numberOfCyclists":0,"weather":11,"date":"2015-04-14"},{"point":{"lat":45.471191,"lng":-73.873293},"locationName":"16709 PIERREFONDS","gravity":"Grave","totalNumberOfVictims":1,"numberOfPedestrian":null,"numberOfCyclists":0,"weather":17,"date":"2015-02-04"},{"point":{"lat":45.477089,"lng":-73.86968},"locationName":"16000 DE PIERREFONDS","gravity":"Léger","totalNumberOfVictims":2,"numberOfPedestrian":null,"numberOfCyclists":0,"weather":11,"date":"2015-02-26"},{"point":{"lat":45.546512,"lng":-73.695428},"locationName":"12115 GOUIN O","gravity":"Dommages matériels seulement","totalNumberOfVictims":0,"numberOfPedestrian":null,"numberOfCyclists":0,"weather":0,"date":"2015-05-18"},{"point":{"lat":45.507803,"lng":-73.818581},"locationName":"11565 PIERREFONDS","gravity":"Dommages matériels seulement","totalNumberOfVictims":0,"numberOfPedestrian":null,"numberOfCyclists":0,"weather":11,"date":"2015-03-20"},{"point":{"lat":45.503323,"lng":-73.843758},"locationName":"13136 MONK","gravity":"Dommages matériels seulement","totalNumberOfVictims":0,"numberOfPedestrian":null,"numberOfCyclists":0,"weather":12,"date":"2015-08-16"},{"point":{"lat":45.504355,"lng":-73.861393},"locationName":"03041 CHERRIER","gravity":"Dommages matériels seulement","totalNumberOfVictims":0,"numberOfPedestrian":null,"numberOfCyclists":0,"weather":12,"date":"2015-01-19"},{"point":{"lat":45.470849,"lng":-73.822883},"locationName":"00215 BRUNSWICK","gravity":"Léger","totalNumberOfVictims":1,"numberOfPedestrian":null,"numberOfCyclists":0,"weather":11,"date":"2015-03-13"},{"point":{"lat":45.51026,"lng":-73.81946},"locationName":"11637 PAVILLON","gravity":"Dommages matériels seulement","totalNumberOfVictims":0,"numberOfPedestrian":null,"numberOfCyclists":0,"weather":11,"date":"2015-06-22"},{"point":{"lat":45.513163,"lng":-73.827434},"locationName":"05205 RIVIERA","gravity":"Dommages matériels seulement","totalNumberOfVictims":0,"numberOfPedestrian":null,"numberOfCyclists":0,"weather":17,"date":"2015-03-15"},{"point":{"lat":45.464105,"lng":-73.674605},"locationName":"05901 AV WESTMINSTER","gravity":"Dommages matériels seulement","totalNumberOfVictims":0,"numberOfPedestrian":null,"numberOfCyclists":0,"weather":11,"date":"2015-08-11"},{"point":{"lat":45.506558,"lng":-73.866961},"locationName":"00989 BELLEVUE","gravity":"Dommages matériels seulement","totalNumberOfVictims":0,"numberOfPedestrian":null,"numberOfCyclists":0,"weather":12,"date":"2015-02-14"},{"point":{"lat":45.466533,"lng":-73.874025},"locationName":"04882 ST CHARLES","gravity":"Léger","totalNumberOfVictims":3,"numberOfPedestrian":null,"numberOfCyclists":0,"weather":11,"date":"2015-01-22"},{"point":{"lat":45.507226,"lng":-73.820479},"locationName":"04980 DES SOURCES","gravity":"Léger","totalNumberOfVictims":3,"numberOfPedestrian":null,"numberOfCyclists":0,"weather":12,"date":"2015-04-22"},{"point":{"lat":45.50853,"lng":-73.849982},"locationName":"13280 HUNTINGTON","gravity":"Léger","totalNumberOfVictims":1,"numberOfPedestrian":null,"numberOfCyclists":0,"weather":12,"date":"2015-11-13"},{"point":{"lat":45.507107,"lng":-73.772429},"locationName":"09465 GOUIN O","gravity":"Dommages matériels seulement","totalNumberOfVictims":0,"numberOfPedestrian":null,"numberOfCyclists":0,"weather":17,"date":"2015-02-19"},{"point":{"lat":45.537591,"lng":-73.704473},"locationName":"03705 PITFIELD","gravity":"Dommages matériels seulement","totalNumberOfVictims":0,"numberOfPedestrian":null,"numberOfCyclists":0,"weather":16,"date":"2015-01-08"},{"point":{"lat":45.505023,"lng":-73.786593},"locationName":"09720 GOUIN O","gravity":"Dommages matériels seulement","totalNumberOfVictims":0,"numberOfPedestrian":null,"numberOfCyclists":0,"weather":12,"date":"2015-06-29"},{"point":{"lat":45.987625,"lng":-73.452449},"locationName":"00955 ST JEAN","gravity":"Dommages matériels seulement","totalNumberOfVictims":0,"numberOfPedestrian":null,"numberOfCyclists":0,"weather":11,"date":"2015-05-22"},{"point":{"lat":45.44934,"lng":-73.832002},"locationName":"00160 STILLVIEW","gravity":"Dommages matériels seulement","totalNumberOfVictims":0,"numberOfPedestrian":null,"numberOfCyclists":0,"weather":11,"date":"2015-06-15"},{"point":{"lat":45.478867,"lng":-73.867029},"locationName":"15760 PIERREFOND BD","gravity":"Dommages matériels seulement","totalNumberOfVictims":0,"numberOfPedestrian":null,"numberOfCyclists":0,"weather":11,"date":"2015-06-17"},{"point":{"lat":45.479922,"lng":-73.850626},"locationName":"04314 JUNEAU","gravity":"Dommages matériels seulement","totalNumberOfVictims":0,"numberOfPedestrian":null,"numberOfCyclists":0,"weather":11,"date":"2015-01-01"},{"point":{"lat":45.424665,"lng":-73.883642},"locationName":"08648 BASS WOOD","gravity":"Dommages matériels seulement","totalNumberOfVictims":0,"numberOfPedestrian":null,"numberOfCyclists":0,"weather":0,"date":"2015-09-07"},{"point":{"lat":45.505687,"lng":-73.861132},"locationName":"03025 CHERRIER","gravity":"Dommages matériels seulement","totalNumberOfVictims":0,"numberOfPedestrian":null,"numberOfCyclists":0,"weather":11,"date":"2015-11-07"},{"point":{"lat":45.525586,"lng":-73.665724},"locationName":"00625 DESLAURIERS","gravity":"Dommages matériels seulement","totalNumberOfVictims":0,"numberOfPedestrian":null,"numberOfCyclists":0,"weather":12,"date":"2015-01-09"},{"point":{"lat":45.501263,"lng":-73.78531},"locationName":"04302 DELANEY","gravity":"Dommages matériels seulement","totalNumberOfVictims":0,"numberOfPedestrian":null,"numberOfCyclists":0,"weather":11,"date":"2015-07-01"},{"point":{"lat":45.504615,"lng":-73.825317},"locationName":"12110 BD PIERREFONDS","gravity":"Léger","totalNumberOfVictims":4,"numberOfPedestrian":null,"numberOfCyclists":0,"weather":11,"date":"2015-05-31"},{"point":{"lat":45.456912,"lng":-73.643357},"locationName":"04500 HOCKMORE","gravity":"Dommages matériels seulement","totalNumberOfVictims":0,"numberOfPedestrian":null,"numberOfCyclists":0,"weather":11,"date":"2015-06-25"},{"point":{"lat":45.451553,"lng":-73.782807},"locationName":"00010 DONEGANI","gravity":"Dommages matériels seulement","totalNumberOfVictims":0,"numberOfPedestrian":null,"numberOfCyclists":0,"weather":17,"date":"2015-01-07"},{"point":{"lat":45.44509,"lng":-73.81909},"locationName":"00022 AURORA","gravity":"Léger","totalNumberOfVictims":1,"numberOfPedestrian":null,"numberOfCyclists":0,"weather":12,"date":"2015-12-09"},{"point":{"lat":45.510869,"lng":-73.662378},"locationName":"01140 GROU","gravity":"Dommages matériels seulement","totalNumberOfVictims":0,"numberOfPedestrian":null,"numberOfCyclists":0,"weather":11,"date":"2015-02-05"},{"point":{"lat":45.52251,"lng":-73.714747},"locationName":"02080 KELLER","gravity":"Dommages matériels seulement","totalNumberOfVictims":0,"numberOfPedestrian":null,"numberOfCyclists":0,"weather":17,"date":"2015-01-19"},{"point":{"lat":45.491167,"lng":-73.856014},"locationName":"14617 BD GOUIN FACE","gravity":"Léger","totalNumberOfVictims":1,"numberOfPedestrian":null,"numberOfCyclists":0,"weather":12,"date":"2015-04-11"},{"point":{"lat":45.461467,"lng":-73.817435},"locationName":"00181 HYMUS","gravity":"Dommages matériels seulement","totalNumberOfVictims":0,"numberOfPedestrian":null,"numberOfCyclists":0,"weather":11,"date":"2015-06-18"},{"point":{"lat":45.466199,"lng":-73.831984},"locationName":"00335 BRUNSWICK","gravity":"Dommages matériels seulement","totalNumberOfVictims":0,"numberOfPedestrian":null,"numberOfCyclists":0,"weather":14,"date":"2015-10-28"},{"point":{"lat":45.438456,"lng":-73.826927},"locationName":"00173 CARTIER","gravity":"Dommages matériels seulement","totalNumberOfVictims":0,"numberOfPedestrian":null,"numberOfCyclists":0,"weather":11,"date":"2015-03-04"},{"point":{"lat":45.430381,"lng":-73.860235},"locationName":"00135 BRUNSWICK","gravity":"Dommages matériels seulement","totalNumberOfVictims":0,"numberOfPedestrian":null,"numberOfCyclists":0,"weather":11,"date":"2015-06-29"},{"point":{"lat":45.439018,"lng":-73.827065},"locationName":"00180 CARTIER","gravity":"Léger","totalNumberOfVictims":1,"numberOfPedestrian":null,"numberOfCyclists":0,"weather":11,"date":"2015-05-06"},{"point":{"lat":45.455065,"lng":-73.826963},"locationName":"00127 ALSTON","gravity":"Dommages matériels seulement","totalNumberOfVictims":0,"numberOfPedestrian":null,"numberOfCyclists":0,"weather":11,"date":"2015-06-23"},{"point":{"lat":45.44934,"lng":-73.832002},"locationName":"00160 STILLVIEW","gravity":"Dommages matériels seulement","totalNumberOfVictims":0,"numberOfPedestrian":null,"numberOfCyclists":0,"weather":11,"date":"2015-10-27"},{"point":{"lat":45.52449,"lng":-73.718096},"locationName":"02125 VIMY","gravity":"Dommages matériels seulement","totalNumberOfVictims":0,"numberOfPedestrian":null,"numberOfCyclists":0,"weather":17,"date":"2015-02-26"},{"point":{"lat":45.504037,"lng":-73.781154},"locationName":"09590 GOUIN O","gravity":"Léger","totalNumberOfVictims":2,"numberOfPedestrian":null,"numberOfCyclists":0,"weather":11,"date":"2015-10-29"},{"point":{"lat":45.443855,"lng":-73.740329},"locationName":"00855 CARSON","gravity":"Léger","totalNumberOfVictims":1,"numberOfPedestrian":null,"numberOfCyclists":0,"weather":14,"date":"2015-12-03"},{"point":{"lat":45.521663,"lng":-73.693224},"locationName":"01490 POIRIER","gravity":"Dommages matériels seulement","totalNumberOfVictims":0,"numberOfPedestrian":null,"numberOfCyclists":0,"weather":11,"date":"2015-01-24"},{"point":{"lat":46.05878,"lng":-73.948164},"locationName":"00200 BOUCHARD","gravity":"Dommages matériels seulement","totalNumberOfVictims":0,"numberOfPedestrian":null,"numberOfCyclists":0,"weather":11,"date":"2015-01-21"},{"point":{"lat":45.454827,"lng":-73.889265},"locationName":"04511 CECILE","gravity":"Dommages matériels seulement","totalNumberOfVictims":0,"numberOfPedestrian":null,"numberOfCyclists":0,"weather":12,"date":"2015-08-29"},{"point":{"lat":45.467645,"lng":-73.872042},"locationName":"04368 AVALON","gravity":"Léger","totalNumberOfVictims":1,"numberOfPedestrian":null,"numberOfCyclists":0,"weather":11,"date":"2015-05-31"},{"point":{"lat":45.463524,"lng":-73.836943},"locationName":"00400 BRUNSWICK","gravity":"Dommages matériels seulement","totalNumberOfVictims":0,"numberOfPedestrian":null,"numberOfCyclists":0,"weather":12,"date":"2015-11-13"},{"point":{"lat":45.445861,"lng":-73.741342},"locationName":"00500 AV DORVAL","gravity":"Dommages matériels seulement","totalNumberOfVictims":0,"numberOfPedestrian":null,"numberOfCyclists":0,"weather":11,"date":"2015-01-27"},{"point":{"lat":45.507785,"lng":-73.823544},"locationName":"11800 GOUIN O FACE AU","gravity":"Léger","totalNumberOfVictims":1,"numberOfPedestrian":null,"numberOfCyclists":0,"weather":11,"date":"2015-06-18"},{"point":{"lat":45.505748,"lng":-73.824906},"locationName":"11930 CALLAS","gravity":"Dommages matériels seulement","totalNumberOfVictims":0,"numberOfPedestrian":null,"numberOfCyclists":0,"weather":11,"date":"2015-08-23"},{"point":{"lat":45.492352,"lng":-73.698983},"locationName":"06801 TRANSCANADIENNE","gravity":"Dommages matériels seulement","totalNumberOfVictims":0,"numberOfPedestrian":null,"numberOfCyclists":0,"weather":11,"date":"2015-11-05"},{"point":{"lat":45.476784,"lng":-73.789927},"locationName":"02848 SOURCES","gravity":"Dommages matériels seulement","totalNumberOfVictims":0,"numberOfPedestrian":null,"numberOfCyclists":0,"weather":12,"date":"2015-06-12"},{"point":{"lat":45.50058,"lng":-73.848606},"locationName":"05100 MARCEAU","gravity":"Léger","totalNumberOfVictims":1,"numberOfPedestrian":null,"numberOfCyclists":0,"weather":11,"date":"2015-10-06"},{"point":{"lat":45.432428,"lng":-73.824507},"locationName":"00073 CARTIER","gravity":"Dommages matériels seulement","totalNumberOfVictims":0,"numberOfPedestrian":null,"numberOfCyclists":0,"weather":12,"date":"2015-01-29"},{"point":{"lat":45.430399,"lng":-73.860244},"locationName":"00142 BRUNSWICK","gravity":"Dommages matériels seulement","totalNumberOfVictims":0,"numberOfPedestrian":null,"numberOfCyclists":0,"weather":11,"date":"2015-04-22"},{"point":{"lat":45.523515,"lng":-73.713739},"locationName":"01947 KELLER","gravity":"Dommages matériels seulement","totalNumberOfVictims":0,"numberOfPedestrian":null,"numberOfCyclists":0,"weather":11,"date":"2015-03-19"},{"point":{"lat":45.523063,"lng":-73.660772},"locationName":"00295 DESLAURIERS","gravity":"Dommages matériels seulement","totalNumberOfVictims":0,"numberOfPedestrian":null,"numberOfCyclists":0,"weather":11,"date":"2015-01-05"},{"point":{"lat":45.492415,"lng":-73.851134},"locationName":"14140 BD PIERREFONDS","gravity":"Dommages matériels seulement","totalNumberOfVictims":0,"numberOfPedestrian":null,"numberOfCyclists":0,"weather":12,"date":"2015-10-11"},{"point":{"lat":45.503289,"lng":-73.830983},"locationName":"04911 BASTIEN","gravity":"Dommages matériels seulement","totalNumberOfVictims":0,"numberOfPedestrian":null,"numberOfCyclists":0,"weather":14,"date":"2015-04-03"},{"point":{"lat":45.482662,"lng":-73.788655},"locationName":"02201 TRANSCANADIENNE","gravity":"Dommages matériels seulement","totalNumberOfVictims":0,"numberOfPedestrian":null,"numberOfCyclists":0,"weather":0,"date":"2015-06-01"},{"point":{"lat":45.507423,"lng":-73.764532},"locationName":"09409 GOUIN O","gravity":"Léger","totalNumberOfVictims":1,"numberOfPedestrian":null,"numberOfCyclists":0,"weather":11,"date":"2015-10-30"},{"point":{"lat":45.498766,"lng":-73.840344},"locationName":"04507 MAPLEWOOD","gravity":"Dommages matériels seulement","totalNumberOfVictims":0,"numberOfPedestrian":null,"numberOfCyclists":0,"weather":11,"date":"2015-11-23"},{"point":{"lat":45.441544,"lng":-73.744411},"locationName":"00925 DAWSON","gravity":"Dommages matériels seulement","totalNumberOfVictims":0,"numberOfPedestrian":null,"numberOfCyclists":0,"weather":11,"date":"2015-05-09"},{"point":{"lat":45.672336,"lng":-73.496806},"locationName":"01177 55E AV","gravity":"Dommages matériels seulement","totalNumberOfVictims":0,"numberOfPedestrian":null,"numberOfCyclists":0,"weather":11,"date":"2015-12-09"},{"point":{"lat":45.476784,"lng":-73.789927},"locationName":"02848 DES SOURCES","gravity":"Dommages matériels seulement","totalNumberOfVictims":0,"numberOfPedestrian":null,"numberOfCyclists":0,"weather":11,"date":"2015-02-27"},{"point":{"lat":45.466143,"lng":-73.869877},"locationName":"16869 DUVAL","gravity":"Dommages matériels seulement","totalNumberOfVictims":0,"numberOfPedestrian":null,"numberOfCyclists":0,"weather":11,"date":"2015-08-23"},{"point":{"lat":45.491493,"lng":-73.852473},"locationName":"14305 BD PIERREFONDS","gravity":"Léger","totalNumberOfVictims":1,"numberOfPedestrian":null,"numberOfCyclists":0,"weather":11,"date":"2015-03-28"},{"point":{"lat":37.705663,"lng":-77.606421},"locationName":"12000 ENGLISH","gravity":"Léger","totalNumberOfVictims":1,"numberOfPedestrian":null,"numberOfCyclists":0,"weather":11,"date":"2015-06-16"},{"point":{"lat":45.504955,"lng":-73.863401},"locationName":"03175 BD CHEVREMONT","gravity":"Dommages matériels seulement","totalNumberOfVictims":0,"numberOfPedestrian":null,"numberOfCyclists":0,"weather":16,"date":"2015-04-11"},{"point":{"lat":45.492352,"lng":-73.698983},"locationName":"06801 TRANSCANADIENNE","gravity":"Léger","totalNumberOfVictims":1,"numberOfPedestrian":null,"numberOfCyclists":0,"weather":11,"date":"2015-05-20"},{"point":{"lat":45.5284,"lng":-73.674126},"locationName":"00700 LEIGH CAPREOL","gravity":"Léger","totalNumberOfVictims":1,"numberOfPedestrian":null,"numberOfCyclists":0,"weather":11,"date":"2015-05-28"},{"point":{"lat":45.512202,"lng":-73.557093},"locationName":"01055 ST REGIS","gravity":"Dommages matériels seulement","totalNumberOfVictims":0,"numberOfPedestrian":null,"numberOfCyclists":0,"weather":11,"date":"2015-02-16"},{"point":{"lat":45.445158,"lng":-73.816165},"locationName":"00325 BD ST JEAN","gravity":"Dommages matériels seulement","totalNumberOfVictims":0,"numberOfPedestrian":null,"numberOfCyclists":0,"weather":11,"date":"2015-05-09"},{"point":{"lat":45.493746,"lng":-73.866592},"locationName":"03252 CHERRIER","gravity":"Dommages matériels seulement","totalNumberOfVictims":0,"numberOfPedestrian":null,"numberOfCyclists":0,"weather":11,"date":"2015-08-19"},{"point":{"lat":45.491501,"lng":-73.852461},"locationName":"14339 BD PIERREFONDS","gravity":"Léger","totalNumberOfVictims":1,"numberOfPedestrian":null,"numberOfCyclists":0,"weather":11,"date":"2015-10-01"},{"point":{"lat":45.461214,"lng":-73.867241},"locationName":"03882 BD ST CHARLES","gravity":"Léger","totalNumberOfVictims":3,"numberOfPedestrian":null,"numberOfCyclists":0,"weather":11,"date":"2015-08-18"},{"point":{"lat":45.512245,"lng":-73.693894},"locationName":"01948 THIMENS","gravity":"Dommages matériels seulement","totalNumberOfVictims":0,"numberOfPedestrian":null,"numberOfCyclists":0,"weather":17,"date":"2015-01-09"},{"point":{"lat":45.492849,"lng":-73.78941},"locationName":"00176 SPRING GARDEN","gravity":"Dommages matériels seulement","totalNumberOfVictims":0,"numberOfPedestrian":null,"numberOfCyclists":0,"weather":11,"date":"2015-10-03"},{"point":{"lat":45.519662,"lng":-73.675751},"locationName":"00845 COTE VERTU","gravity":"Dommages matériels seulement","totalNumberOfVictims":0,"numberOfPedestrian":null,"numberOfCyclists":0,"weather":11,"date":"2015-04-01"},{"point":{"lat":45.514729,"lng":-73.709117},"locationName":"02415 DES NATIONS","gravity":"Dommages matériels seulement","totalNumberOfVictims":0,"numberOfPedestrian":null,"numberOfCyclists":0,"weather":11,"date":"2015-05-30"},{"point":{"lat":46.259366,"lng":-73.522174},"locationName":"00800 LEIGH CAPREOL STAT AEROPORT","gravity":"Dommages matériels seulement","totalNumberOfVictims":0,"numberOfPedestrian":null,"numberOfCyclists":0,"weather":11,"date":"2015-02-08"},{"point":{"lat":45.469605,"lng":-73.815388},"locationName":"05501 TRANSCANADIENNE","gravity":"Dommages matériels seulement","totalNumberOfVictims":0,"numberOfPedestrian":null,"numberOfCyclists":0,"weather":11,"date":"2015-03-28"},{"point":{"lat":45.501976,"lng":-73.679533},"locationName":"00385 MARLATT","gravity":"Dommages matériels seulement","totalNumberOfVictims":0,"numberOfPedestrian":null,"numberOfCyclists":0,"weather":16,"date":"2015-02-20"},{"point":{"lat":45.637053,"lng":-73.521367},"locationName":"11490 PIERREFONDS","gravity":"Dommages matériels seulement","totalNumberOfVictims":0,"numberOfPedestrian":null,"numberOfCyclists":0,"weather":14,"date":"2015-07-01"},{"point":{"lat":45.449612,"lng":-73.831472},"locationName":"00250 SEDGEFIELD","gravity":"Dommages matériels seulement","totalNumberOfVictims":0,"numberOfPedestrian":null,"numberOfCyclists":0,"weather":11,"date":"2015-03-12"},{"point":{"lat":45.466134,"lng":-73.879458},"locationName":"17400 BD PIERREFONDS","gravity":"Léger","totalNumberOfVictims":2,"numberOfPedestrian":null,"numberOfCyclists":0,"weather":11,"date":"2015-02-26"},{"point":{"lat":45.453653,"lng":-73.81023},"locationName":"00430 AV ST LOUIS","gravity":"Dommages matériels seulement","totalNumberOfVictims":0,"numberOfPedestrian":null,"numberOfCyclists":0,"weather":0,"date":"2015-07-09"},{"point":{"lat":45.500221,"lng":-73.684394},"locationName":"00535 DORAIS","gravity":"Dommages matériels seulement","totalNumberOfVictims":0,"numberOfPedestrian":null,"numberOfCyclists":0,"weather":12,"date":"2015-01-30"},{"point":{"lat":45.527513,"lng":-73.677436},"locationName":"01405 JULES POITRAS","gravity":"Dommages matériels seulement","totalNumberOfVictims":0,"numberOfPedestrian":null,"numberOfCyclists":0,"weather":12,"date":"2015-02-13"},{"point":{"lat":45.508272,"lng":-73.673265},"locationName":"00450 DECARIE","gravity":"Dommages matériels seulement","totalNumberOfVictims":0,"numberOfPedestrian":null,"numberOfCyclists":0,"weather":17,"date":"2015-01-07"},{"point":{"lat":45.526405,"lng":-73.674032},"locationName":"01200 JULES POITRAS","gravity":"Dommages matériels seulement","totalNumberOfVictims":0,"numberOfPedestrian":null,"numberOfCyclists":0,"weather":11,"date":"2015-02-27"},{"point":{"lat":45.498212,"lng":-73.744433},"locationName":"02880 BOTHAM","gravity":"Léger","totalNumberOfVictims":1,"numberOfPedestrian":null,"numberOfCyclists":0,"weather":11,"date":"2015-05-14"},{"point":{"lat":45.489154,"lng":-73.936009},"locationName":"01500 WILSON","gravity":"Dommages matériels seulement","totalNumberOfVictims":0,"numberOfPedestrian":null,"numberOfCyclists":0,"weather":11,"date":"2015-12-25"},{"point":{"lat":45.464105,"lng":-73.674605},"locationName":"05901 AV WESTMINSTER","gravity":"Dommages matériels seulement","totalNumberOfVictims":0,"numberOfPedestrian":null,"numberOfCyclists":0,"weather":11,"date":"2015-04-03"},{"point":{"lat":45.444741,"lng":-73.740898},"locationName":"00335 AV DORVAL","gravity":"Dommages matériels seulement","totalNumberOfVictims":0,"numberOfPedestrian":null,"numberOfCyclists":0,"weather":0,"date":"2015-07-01"},{"point":{"lat":45.492352,"lng":-73.698983},"locationName":"06801 TRANSCANADIENNE","gravity":"Léger","totalNumberOfVictims":1,"numberOfPedestrian":null,"numberOfCyclists":0,"weather":11,"date":"2015-12-28"},{"point":{"lat":45.469843,"lng":-73.805098},"locationName":"00587 DELMAR","gravity":"Dommages matériels seulement","totalNumberOfVictims":0,"numberOfPedestrian":null,"numberOfCyclists":0,"weather":11,"date":"2015-05-20"},{"point":{"lat":45.448075,"lng":-73.747301},"locationName":"00995 MONTREAL TORONTO","gravity":"Dommages matériels seulement","totalNumberOfVictims":0,"numberOfPedestrian":null,"numberOfCyclists":0,"weather":11,"date":"2015-06-29"},{"point":{"lat":45.502595,"lng":-73.705897},"locationName":"02805 THIMENS","gravity":"Dommages matériels seulement","totalNumberOfVictims":0,"numberOfPedestrian":null,"numberOfCyclists":0,"weather":18,"date":"2015-02-02"},{"point":{"lat":45.492352,"lng":-73.698983},"locationName":"06801 TRANSCANADIENNE","gravity":"Léger","totalNumberOfVictims":1,"numberOfPedestrian":null,"numberOfCyclists":0,"weather":11,"date":"2015-04-26"},{"point":{"lat":45.459764,"lng":-73.86749},"locationName":"17181 ANTOINE FAUCON","gravity":"Léger","totalNumberOfVictims":1,"numberOfPedestrian":null,"numberOfCyclists":0,"weather":11,"date":"2015-10-14"},{"point":{"lat":45.52003,"lng":-73.671666},"locationName":"00750 MONTPELLIER","gravity":"Dommages matériels seulement","totalNumberOfVictims":0,"numberOfPedestrian":null,"numberOfCyclists":0,"weather":17,"date":"2015-02-11"},{"point":{"lat":45.468656,"lng":-73.826983},"locationName":"00230 BRUNSWICK","gravity":"Léger","totalNumberOfVictims":1,"numberOfPedestrian":null,"numberOfCyclists":0,"weather":11,"date":"2015-11-16"},{"point":{"lat":45.479692,"lng":-73.699346},"locationName":"07300 CH DE LA COTE DE LIESSE","gravity":"Dommages matériels seulement","totalNumberOfVictims":0,"numberOfPedestrian":null,"numberOfCyclists":0,"weather":11,"date":"2015-04-14"},{"point":{"lat":45.518486,"lng":-73.701404},"locationName":"01999 MARCEL LAURIN","gravity":"Dommages matériels seulement","totalNumberOfVictims":0,"numberOfPedestrian":null,"numberOfCyclists":0,"weather":11,"date":"2015-01-17"},{"point":{"lat":45.495812,"lng":-73.677874},"locationName":"05805 TRANS CANADIENNE","gravity":"Dommages matériels seulement","totalNumberOfVictims":0,"numberOfPedestrian":null,"numberOfCyclists":0,"weather":17,"date":"2015-02-19"},{"point":{"lat":45.426626,"lng":-73.824702},"locationName":"00003 STE ANNE","gravity":"Dommages matériels seulement","totalNumberOfVictims":0,"numberOfPedestrian":null,"numberOfCyclists":0,"weather":11,"date":"2015-04-30"},{"point":{"lat":45.44082,"lng":-73.729749},"locationName":"00398 BORD DU LAC","gravity":"Dommages matériels seulement","totalNumberOfVictims":0,"numberOfPedestrian":null,"numberOfCyclists":0,"weather":17,"date":"2015-01-04"},{"point":{"lat":45.485334,"lng":-73.797971},"locationName":"03367 DES SOURCES","gravity":"Dommages matériels seulement","totalNumberOfVictims":0,"numberOfPedestrian":null,"numberOfCyclists":0,"weather":11,"date":"2015-05-23"},{"point":{"lat":45.48814,"lng":-73.792473},"locationName":"00034 FABRE","gravity":"Dommages matériels seulement","totalNumberOfVictims":0,"numberOfPedestrian":null,"numberOfCyclists":0,"weather":0,"date":"2015-02-02"},{"point":{"lat":45.531215,"lng":-73.674878},"locationName":"00155 BD DEGUIRE","gravity":"Dommages matériels seulement","totalNumberOfVictims":0,"numberOfPedestrian":null,"numberOfCyclists":0,"weather":17,"date":"2015-02-09"},{"point":{"lat":45.445907,"lng":-73.769433},"locationName":"00341 BROOKHAVEN","gravity":"Léger","totalNumberOfVictims":1,"numberOfPedestrian":null,"numberOfCyclists":0,"weather":11,"date":"2015-12-16"},{"point":{"lat":45.50675,"lng":-73.77333},"locationName":"09469 PRES GOUIN","gravity":"Dommages matériels seulement","totalNumberOfVictims":0,"numberOfPedestrian":null,"numberOfCyclists":0,"weather":11,"date":"2015-12-12"},{"point":{"lat":45.495516,"lng":-73.589324},"locationName":"03796 DES SOURCES N OPP","gravity":"Léger","totalNumberOfVictims":1,"numberOfPedestrian":null,"numberOfCyclists":0,"weather":11,"date":"2015-07-12"},{"point":{"lat":45.506399,"lng":-73.572443},"locationName":"00500 CH COTE VERTU O","gravity":"Léger","totalNumberOfVictims":1,"numberOfPedestrian":null,"numberOfCyclists":0,"weather":11,"date":"2015-02-10"},{"point":{"lat":45.501257,"lng":-73.814478},"locationName":"04601 BD DES SOURCES","gravity":"Dommages matériels seulement","totalNumberOfVictims":0,"numberOfPedestrian":null,"numberOfCyclists":0,"weather":12,"date":"2015-07-17"},{"point":{"lat":45.521361,"lng":-73.674373},"locationName":"01022 MONTPELLIER","gravity":"Dommages matériels seulement","totalNumberOfVictims":0,"numberOfPedestrian":null,"numberOfCyclists":0,"weather":17,"date":"2015-01-09"},{"point":{"lat":45.484635,"lng":-73.868167},"locationName":"00237 DU PONT","gravity":"Dommages matériels seulement","totalNumberOfVictims":0,"numberOfPedestrian":null,"numberOfCyclists":0,"weather":11,"date":"2015-07-25"},{"point":{"lat":45.460096,"lng":-73.820166},"locationName":"00183 BD HYMUS","gravity":"Dommages matériels seulement","totalNumberOfVictims":0,"numberOfPedestrian":null,"numberOfCyclists":0,"weather":12,"date":"2015-11-13"},{"point":{"lat":45.499446,"lng":-73.812777},"locationName":"04519 BD SOURCES","gravity":"Léger","totalNumberOfVictims":1,"numberOfPedestrian":null,"numberOfCyclists":0,"weather":11,"date":"2015-02-26"},{"point":{"lat":45.5284,"lng":-73.674126},"locationName":"00800 LEIGH CAPREOL","gravity":"Dommages matériels seulement","totalNumberOfVictims":0,"numberOfPedestrian":null,"numberOfCyclists":0,"weather":11,"date":"2015-06-22"},{"point":{"lat":45.47495,"lng":-73.705653},"locationName":"08550 CH DE LA COTE DE LIESSE","gravity":"Dommages matériels seulement","totalNumberOfVictims":0,"numberOfPedestrian":null,"numberOfCyclists":0,"weather":11,"date":"2015-05-24"},{"point":{"lat":45.497292,"lng":-73.81068},"locationName":"04463 DES SOURCES","gravity":"Dommages matériels seulement","totalNumberOfVictims":0,"numberOfPedestrian":null,"numberOfCyclists":0,"weather":11,"date":"2015-11-20"},{"point":{"lat":45.518486,"lng":-73.701404},"locationName":"01999 MARCEL LAURIN","gravity":"Dommages matériels seulement","totalNumberOfVictims":0,"numberOfPedestrian":null,"numberOfCyclists":0,"weather":99,"date":"2015-01-16"},{"point":{"lat":45.519126,"lng":-73.702659},"locationName":"02000 MARCEL LAURIN","gravity":"Léger","totalNumberOfVictims":3,"numberOfPedestrian":null,"numberOfCyclists":0,"weather":12,"date":"2015-02-27"},{"point":{"lat":45.478029,"lng":-73.798145},"locationName":"02501 TRANSCANADIENNE","gravity":"Dommages matériels seulement","totalNumberOfVictims":0,"numberOfPedestrian":null,"numberOfCyclists":0,"weather":12,"date":"2015-04-27"},{"point":{"lat":45.484492,"lng":-73.772894},"locationName":"01525 HYMUS","gravity":"Dommages matériels seulement","totalNumberOfVictims":0,"numberOfPedestrian":null,"numberOfCyclists":0,"weather":11,"date":"2015-02-16"},{"point":{"lat":45.481653,"lng":-73.709305},"locationName":"00975 ROMEO VACHON","gravity":"Dommages matériels seulement","totalNumberOfVictims":0,"numberOfPedestrian":null,"numberOfCyclists":0,"weather":11,"date":"2015-03-11"},{"point":{"lat":45.493514,"lng":-73.70866},"locationName":"03660 BD DE LA COTE VERTU","gravity":"Dommages matériels seulement","totalNumberOfVictims":0,"numberOfPedestrian":null,"numberOfCyclists":0,"weather":11,"date":"2015-04-08"},{"point":{"lat":45.507749,"lng":-73.82077},"locationName":"05021 DES SOURCES","gravity":"Dommages matériels seulement","totalNumberOfVictims":0,"numberOfPedestrian":null,"numberOfCyclists":0,"weather":11,"date":"2015-01-29"},{"point":{"lat":45.469547,"lng":-73.797057},"locationName":"00328 AVRO","gravity":"Dommages matériels seulement","totalNumberOfVictims":0,"numberOfPedestrian":null,"numberOfCyclists":0,"weather":12,"date":"2015-11-28"},{"point":{"lat":45.495496,"lng":-73.706149},"locationName":"03500 COTE VERTU","gravity":"Dommages matériels seulement","totalNumberOfVictims":0,"numberOfPedestrian":null,"numberOfCyclists":0,"weather":12,"date":"2015-02-11"},{"point":{"lat":45.429654,"lng":-73.844128},"locationName":"00087 BORD DU LAC","gravity":"Dommages matériels seulement","totalNumberOfVictims":0,"numberOfPedestrian":null,"numberOfCyclists":0,"weather":12,"date":"2015-07-04"},{"point":{"lat":45.5284,"lng":-73.674126},"locationName":"00800 LEIGH CAPREOL","gravity":"Dommages matériels seulement","totalNumberOfVictims":0,"numberOfPedestrian":null,"numberOfCyclists":0,"weather":17,"date":"2015-01-18"},{"point":{"lat":45.5284,"lng":-73.674126},"locationName":"00800 LEIGH CAPREOL","gravity":"Léger","totalNumberOfVictims":1,"numberOfPedestrian":null,"numberOfCyclists":0,"weather":11,"date":"2015-04-11"},{"point":{"lat":45.933583,"lng":-73.480621},"locationName":"00325 ST JEAN","gravity":"Dommages matériels seulement","totalNumberOfVictims":0,"numberOfPedestrian":null,"numberOfCyclists":0,"weather":11,"date":"2015-05-06"},{"point":{"lat":45.484429,"lng":-73.859005},"locationName":"14850 PIERREFONDS","gravity":"Léger","totalNumberOfVictims":1,"numberOfPedestrian":null,"numberOfCyclists":0,"weather":11,"date":"2015-11-10"},{"point":{"lat":45.444359,"lng":-73.74097},"locationName":"00352 AV DORVAL","gravity":"Dommages matériels seulement","totalNumberOfVictims":0,"numberOfPedestrian":null,"numberOfCyclists":0,"weather":11,"date":"2015-09-24"},{"point":{"lat":45.44493,"lng":-73.775588},"locationName":"00230 STRATHMORE","gravity":"Dommages matériels seulement","totalNumberOfVictims":0,"numberOfPedestrian":null,"numberOfCyclists":0,"weather":0,"date":"2015-05-09"},{"point":{"lat":45.495827,"lng":-73.677803},"locationName":"05701 TRANSCANADIENNE","gravity":"Léger","totalNumberOfVictims":1,"numberOfPedestrian":null,"numberOfCyclists":0,"weather":11,"date":"2015-05-08"},{"point":{"lat":45.519945,"lng":-73.703739},"locationName":"02179 MARCEL LAURIN","gravity":"Dommages matériels seulement","totalNumberOfVictims":0,"numberOfPedestrian":null,"numberOfCyclists":0,"weather":11,"date":"2015-02-13"},{"point":{"lat":45.516864,"lng":-73.698749},"locationName":"01757 MARCEL LAURIN","gravity":"Léger","totalNumberOfVictims":1,"numberOfPedestrian":null,"numberOfCyclists":0,"weather":11,"date":"2015-02-25"},{"point":{"lat":45.443836,"lng":-73.74049},"locationName":"00875 CARSON","gravity":"Léger","totalNumberOfVictims":1,"numberOfPedestrian":null,"numberOfCyclists":0,"weather":11,"date":"2015-04-15"},{"point":{"lat":45.522447,"lng":-73.577587},"locationName":"00457 MICHEL JASMIN","gravity":"Dommages matériels seulement","totalNumberOfVictims":0,"numberOfPedestrian":null,"numberOfCyclists":0,"weather":0,"date":"2015-05-23"},{"point":{"lat":45.495018,"lng":-73.686717},"locationName":"06321 RTE TRANSCANADIENNE","gravity":"Dommages matériels seulement","totalNumberOfVictims":0,"numberOfPedestrian":null,"numberOfCyclists":0,"weather":11,"date":"2015-01-13"},{"point":{"lat":45.474423,"lng":-73.706307},"locationName":"08750 COTE DE LIESSE","gravity":"Léger","totalNumberOfVictims":1,"numberOfPedestrian":null,"numberOfCyclists":0,"weather":11,"date":"2015-01-25"},{"point":{"lat":45.449957,"lng":-73.832628},"locationName":"00175 STILLVIEW","gravity":"Dommages matériels seulement","totalNumberOfVictims":0,"numberOfPedestrian":null,"numberOfCyclists":0,"weather":14,"date":"2015-12-15"},{"point":{"lat":45.509982,"lng":-73.711811},"locationName":"02735 CHAMONIX","gravity":"Dommages matériels seulement","totalNumberOfVictims":0,"numberOfPedestrian":null,"numberOfCyclists":0,"weather":17,"date":"2015-01-29"},{"point":{"lat":45.486412,"lng":-73.742484},"locationName":"05501 VANDEN ABEEL","gravity":"Dommages matériels seulement","totalNumberOfVictims":0,"numberOfPedestrian":null,"numberOfCyclists":0,"weather":11,"date":"2015-02-12"},{"point":{"lat":45.480345,"lng":-73.841958},"locationName":"04309 BD ST JEAN","gravity":"Dommages matériels seulement","totalNumberOfVictims":0,"numberOfPedestrian":null,"numberOfCyclists":0,"weather":11,"date":"2015-12-24"},{"point":{"lat":45.492352,"lng":-73.698983},"locationName":"06801 TRANSCANADIENNE","gravity":"Dommages matériels seulement","totalNumberOfVictims":0,"numberOfPedestrian":null,"numberOfCyclists":0,"weather":11,"date":"2015-04-14"},{"point":{"lat":45.492001,"lng":-73.648563},"locationName":"06900 DECARIE","gravity":"Dommages matériels seulement","totalNumberOfVictims":0,"numberOfPedestrian":null,"numberOfCyclists":0,"weather":11,"date":"2015-03-05"},{"point":{"lat":45.490376,"lng":-73.749462},"locationName":"09500 TRANSCANADIENNE","gravity":"Dommages matériels seulement","totalNumberOfVictims":0,"numberOfPedestrian":null,"numberOfCyclists":0,"weather":11,"date":"2015-03-03"},{"point":{"lat":45.512585,"lng":-73.663947},"locationName":"00170 FACE LECAVALIER","gravity":"Dommages matériels seulement","totalNumberOfVictims":0,"numberOfPedestrian":null,"numberOfCyclists":0,"weather":11,"date":"2015-01-22"},{"point":{"lat":45.519953,"lng":-73.698794},"locationName":"01899 CONNAUGHT","gravity":"Dommages matériels seulement","totalNumberOfVictims":0,"numberOfPedestrian":null,"numberOfCyclists":0,"weather":17,"date":"2015-01-22"},{"point":{"lat":45.504422,"lng":-73.810069},"locationName":"00076 GENERAL BROCK","gravity":"Dommages matériels seulement","totalNumberOfVictims":0,"numberOfPedestrian":null,"numberOfCyclists":0,"weather":11,"date":"2015-08-10"},{"point":{"lat":45.649897,"lng":-73.504523},"locationName":"00160 STILLVIEW STAT","gravity":"Grave","totalNumberOfVictims":1,"numberOfPedestrian":null,"numberOfCyclists":0,"weather":11,"date":"2015-02-16"},{"point":{"lat":45.523704,"lng":-73.671992},"locationName":"00500 COTE VERTU","gravity":"Léger","totalNumberOfVictims":2,"numberOfPedestrian":null,"numberOfCyclists":0,"weather":11,"date":"2015-05-08"},{"point":{"lat":45.513919,"lng":-73.676151},"locationName":"00821 AV STE CROIX","gravity":"Léger","totalNumberOfVictims":2,"numberOfPedestrian":null,"numberOfCyclists":0,"weather":11,"date":"2015-05-14"},{"point":{"lat":45.482088,"lng":-73.858406},"locationName":"04482 ROLLAND","gravity":"Dommages matériels seulement","totalNumberOfVictims":0,"numberOfPedestrian":null,"numberOfCyclists":0,"weather":14,"date":"2015-04-22"},{"point":{"lat":45.484689,"lng":-73.858672},"locationName":"14824 BD DE PIERREFONDS","gravity":"Dommages matériels seulement","totalNumberOfVictims":0,"numberOfPedestrian":null,"numberOfCyclists":0,"weather":12,"date":"2015-07-18"},{"point":{"lat":45.481653,"lng":-73.709305},"locationName":"00975 ROMEO VACHON","gravity":"Léger","totalNumberOfVictims":1,"numberOfPedestrian":null,"numberOfCyclists":0,"weather":0,"date":"2015-04-18"},{"point":{"lat":45.484409,"lng":-73.859033},"locationName":"14855 BD PIERREFONDS","gravity":"Dommages matériels seulement","totalNumberOfVictims":0,"numberOfPedestrian":null,"numberOfCyclists":0,"weather":11,"date":"2015-09-11"},{"point":{"lat":45.5284,"lng":-73.674126},"locationName":"00800 LEIGH CAPREOL","gravity":"Dommages matériels seulement","totalNumberOfVictims":0,"numberOfPedestrian":null,"numberOfCyclists":0,"weather":11,"date":"2015-06-18"},{"point":{"lat":45.509975,"lng":-73.803276},"locationName":"10386 BD GOUIN O","gravity":"Dommages matériels seulement","totalNumberOfVictims":0,"numberOfPedestrian":null,"numberOfCyclists":0,"weather":17,"date":"2015-02-04"},{"point":{"lat":45.501379,"lng":-73.560656},"locationName":"00749 MTL TOR","gravity":"Léger","totalNumberOfVictims":1,"numberOfPedestrian":null,"numberOfCyclists":0,"weather":11,"date":"2015-11-23"},{"point":{"lat":45.500258,"lng":-73.839182},"locationName":"13100 BD PIERREFONDS","gravity":"Dommages matériels seulement","totalNumberOfVictims":0,"numberOfPedestrian":null,"numberOfCyclists":0,"weather":11,"date":"2015-02-17"},{"point":{"lat":45.505805,"lng":-73.822074},"locationName":"11851 BD DE PIERREFONDS","gravity":"Grave","totalNumberOfVictims":1,"numberOfPedestrian":null,"numberOfCyclists":0,"weather":18,"date":"2015-07-29"},{"point":{"lat":45.505656,"lng":-73.86867},"locationName":"00132 PIERRE PANET","gravity":"Dommages matériels seulement","totalNumberOfVictims":0,"numberOfPedestrian":null,"numberOfCyclists":0,"weather":11,"date":"2015-06-04"},{"point":{"lat":45.495827,"lng":-73.677803},"locationName":"05701 TRANSCANADIENNE","gravity":"Dommages matériels seulement","totalNumberOfVictims":0,"numberOfPedestrian":null,"numberOfCyclists":0,"weather":11,"date":"2015-01-24"},{"point":{"lat":45.509595,"lng":-73.662128},"locationName":"03955 COTE DE LIESSE","gravity":"Dommages matériels seulement","totalNumberOfVictims":0,"numberOfPedestrian":null,"numberOfCyclists":0,"weather":11,"date":"2015-03-12"},{"point":{"lat":45.490985,"lng":-73.711918},"locationName":"04034 DE LA COTE VERTU","gravity":"Dommages matériels seulement","totalNumberOfVictims":0,"numberOfPedestrian":null,"numberOfCyclists":0,"weather":17,"date":"2015-01-24"},{"point":{"lat":45.437549,"lng":-73.728049},"locationName":"00013 ST CHARLES","gravity":"Dommages matériels seulement","totalNumberOfVictims":0,"numberOfPedestrian":null,"numberOfCyclists":0,"weather":11,"date":"2015-06-08"},{"point":{"lat":45.462779,"lng":-73.897965},"locationName":"18464 GOUIN O","gravity":"Dommages matériels seulement","totalNumberOfVictims":0,"numberOfPedestrian":null,"numberOfCyclists":0,"weather":11,"date":"2015-11-08"},{"point":{"lat":45.47557,"lng":-73.819337},"locationName":"00163 LABROSSE","gravity":"Dommages matériels seulement","totalNumberOfVictims":0,"numberOfPedestrian":null,"numberOfCyclists":0,"weather":11,"date":"2015-03-09"},{"point":{"lat":45.49,"lng":-73.756021},"locationName":"09720 TRANSCANADIENNE","gravity":"Dommages matériels seulement","totalNumberOfVictims":0,"numberOfPedestrian":null,"numberOfCyclists":0,"weather":11,"date":"2015-02-20"},{"point":{"lat":45.504263,"lng":-73.664592},"locationName":"13000 COTE DE LIESSE","gravity":"Dommages matériels seulement","totalNumberOfVictims":0,"numberOfPedestrian":null,"numberOfCyclists":0,"weather":0,"date":"2015-12-26"},{"point":{"lat":45.502013,"lng":-73.706675},"locationName":"11200 CAVENDISH","gravity":"Dommages matériels seulement","totalNumberOfVictims":0,"numberOfPedestrian":null,"numberOfCyclists":0,"weather":12,"date":"2015-02-07"},{"point":{"lat":45.525147,"lng":-73.656626},"locationName":"00230 LEBEAU","gravity":"Dommages matériels seulement","totalNumberOfVictims":0,"numberOfPedestrian":null,"numberOfCyclists":0,"weather":12,"date":"2015-01-12"},{"point":{"lat":45.485412,"lng":-73.707273},"locationName":"00550 MCCAFFRET","gravity":"Dommages matériels seulement","totalNumberOfVictims":0,"numberOfPedestrian":null,"numberOfCyclists":0,"weather":12,"date":"2015-02-12"},{"point":{"lat":45.495827,"lng":-73.677803},"locationName":"05701 RTE TRANSCANADIENNE","gravity":"Dommages matériels seulement","totalNumberOfVictims":0,"numberOfPedestrian":null,"numberOfCyclists":0,"weather":17,"date":"2015-12-01"},{"point":{"lat":45.515219,"lng":-73.696096},"locationName":"01605 MARCEL LAURIN","gravity":"Dommages matériels seulement","totalNumberOfVictims":0,"numberOfPedestrian":null,"numberOfCyclists":0,"weather":11,"date":"2015-01-25"},{"point":{"lat":45.451553,"lng":-73.782807},"locationName":"00010 DONEGANI","gravity":"Dommages matériels seulement","totalNumberOfVictims":0,"numberOfPedestrian":null,"numberOfCyclists":0,"weather":17,"date":"2015-01-07"},{"point":{"lat":45.492352,"lng":-73.698983},"locationName":"06801 TRANSCANADIENNE","gravity":"Léger","totalNumberOfVictims":2,"numberOfPedestrian":null,"numberOfCyclists":0,"weather":11,"date":"2015-12-13"},{"point":{"lat":45.496707,"lng":-73.569899},"locationName":"01300 TRANSCANADIENNE VOIE SERV S","gravity":"Dommages matériels seulement","totalNumberOfVictims":0,"numberOfPedestrian":null,"numberOfCyclists":0,"weather":11,"date":"2015-01-20"},{"point":{"lat":45.503594,"lng":-73.743177},"locationName":"08515 HENRI BOURASSA","gravity":"Dommages matériels seulement","totalNumberOfVictims":0,"numberOfPedestrian":null,"numberOfCyclists":0,"weather":17,"date":"2015-02-22"},{"point":{"lat":45.487756,"lng":-73.849356},"locationName":"04700 ST JEAN","gravity":"Dommages matériels seulement","totalNumberOfVictims":0,"numberOfPedestrian":null,"numberOfCyclists":0,"weather":11,"date":"2015-11-05"},{"point":{"lat":45.513088,"lng":-73.816617},"locationName":"11145 MEIGHEN","gravity":"Dommages matériels seulement","totalNumberOfVictims":0,"numberOfPedestrian":null,"numberOfCyclists":0,"weather":11,"date":"2015-03-03"},{"point":{"lat":45.516517,"lng":-73.68041},"locationName":"01025 STE CROIX","gravity":"Dommages matériels seulement","totalNumberOfVictims":0,"numberOfPedestrian":null,"numberOfCyclists":0,"weather":12,"date":"2015-03-15"},{"point":{"lat":45.490409,"lng":-73.745825},"locationName":"09300 TRANSCADIENNE","gravity":"Dommages matériels seulement","totalNumberOfVictims":0,"numberOfPedestrian":null,"numberOfCyclists":0,"weather":11,"date":"2015-01-24"},{"point":{"lat":45.510828,"lng":-73.810785},"locationName":"11100 BD GOUIN O","gravity":"Léger","totalNumberOfVictims":1,"numberOfPedestrian":null,"numberOfCyclists":0,"weather":11,"date":"2015-07-17"},{"point":{"lat":45.477484,"lng":-73.790267},"locationName":"02915 BD DES SOURCES","gravity":"Dommages matériels seulement","totalNumberOfVictims":0,"numberOfPedestrian":null,"numberOfCyclists":0,"weather":17,"date":"2015-02-21"},{"point":{"lat":45.473804,"lng":-73.873593},"locationName":"16595 RICHELIEU TSSE","gravity":"Dommages matériels seulement","totalNumberOfVictims":0,"numberOfPedestrian":null,"numberOfCyclists":0,"weather":17,"date":"2015-02-14"},{"point":{"lat":45.491501,"lng":-73.852461},"locationName":"14339 BD PIERREFONDS","gravity":"Léger","totalNumberOfVictims":2,"numberOfPedestrian":null,"numberOfCyclists":0,"weather":11,"date":"2015-06-22"},{"point":{"lat":45.513654,"lng":-73.642648},"locationName":"00472 ALEXANDER","gravity":"Dommages matériels seulement","totalNumberOfVictims":0,"numberOfPedestrian":null,"numberOfCyclists":0,"weather":11,"date":"2015-03-14"},{"point":{"lat":45.448744,"lng":-73.812747},"locationName":"00035 MAYWOOD","gravity":"Léger","totalNumberOfVictims":1,"numberOfPedestrian":null,"numberOfCyclists":0,"weather":12,"date":"2015-12-14"},{"point":{"lat":45.492352,"lng":-73.698983},"locationName":"06801 TRANSCANADIENNE","gravity":"Dommages matériels seulement","totalNumberOfVictims":0,"numberOfPedestrian":null,"numberOfCyclists":0,"weather":11,"date":"2015-03-18"},{"point":{"lat":45.485589,"lng":-73.770619},"locationName":"01430 HYMUS","gravity":"Dommages matériels seulement","totalNumberOfVictims":0,"numberOfPedestrian":null,"numberOfCyclists":0,"weather":11,"date":"2015-02-25"},{"point":{"lat":45.461036,"lng":-73.818279},"locationName":"00185 HYMUS ARR","gravity":"Léger","totalNumberOfVictims":1,"numberOfPedestrian":null,"numberOfCyclists":0,"weather":11,"date":"2015-06-06"},{"point":{"lat":45.460898,"lng":-73.564623},"locationName":"00088 DONEGAMI","gravity":"Dommages matériels seulement","totalNumberOfVictims":0,"numberOfPedestrian":null,"numberOfCyclists":0,"weather":11,"date":"2015-12-06"},{"point":{"lat":45.492352,"lng":-73.698983},"locationName":"06801 TRANSCANADIENNE STAT","gravity":"Dommages matériels seulement","totalNumberOfVictims":0,"numberOfPedestrian":null,"numberOfCyclists":0,"weather":12,"date":"2015-01-03"},{"point":{"lat":45.50684,"lng":-73.760772},"locationName":"03650 PITFIELD","gravity":"Dommages matériels seulement","totalNumberOfVictims":0,"numberOfPedestrian":null,"numberOfCyclists":0,"weather":11,"date":"2015-05-14"},{"point":{"lat":45.463524,"lng":-73.836943},"locationName":"00400 BRUNSWICK","gravity":"Dommages matériels seulement","totalNumberOfVictims":0,"numberOfPedestrian":null,"numberOfCyclists":0,"weather":12,"date":"2015-11-14"},{"point":{"lat":45.508425,"lng":-73.680344},"locationName":"00701 BUCHANAN","gravity":"Dommages matériels seulement","totalNumberOfVictims":0,"numberOfPedestrian":null,"numberOfCyclists":0,"weather":11,"date":"2015-02-11"},{"point":{"lat":45.490534,"lng":-73.692342},"locationName":"09191 CAVENDISH","gravity":"Dommages matériels seulement","totalNumberOfVictims":0,"numberOfPedestrian":null,"numberOfCyclists":0,"weather":17,"date":"2015-01-03"},{"point":{"lat":45.44859,"lng":-73.755584},"locationName":"01270 CH HERRON","gravity":"Dommages matériels seulement","totalNumberOfVictims":0,"numberOfPedestrian":null,"numberOfCyclists":0,"weather":11,"date":"2015-05-12"},{"point":{"lat":45.490975,"lng":-73.703374},"locationName":"07215 TRANSCANADIENNE","gravity":"Dommages matériels seulement","totalNumberOfVictims":0,"numberOfPedestrian":null,"numberOfCyclists":0,"weather":12,"date":"2015-01-13"},{"point":{"lat":45.488481,"lng":-73.853676},"locationName":"14389 JOLICOEUR","gravity":"Dommages matériels seulement","totalNumberOfVictims":0,"numberOfPedestrian":null,"numberOfCyclists":0,"weather":0,"date":"2015-06-01"},{"point":{"lat":45.499747,"lng":-73.671164},"locationName":"05435 CH DE LA COTE DE LIESSE","gravity":"Dommages matériels seulement","totalNumberOfVictims":0,"numberOfPedestrian":null,"numberOfCyclists":0,"weather":11,"date":"2015-02-13"},{"point":{"lat":45.521951,"lng":-73.673169},"locationName":"00640 BD DE LA COTE VERTU","gravity":"Dommages matériels seulement","totalNumberOfVictims":0,"numberOfPedestrian":null,"numberOfCyclists":0,"weather":11,"date":"2015-01-14"},{"point":{"lat":45.526212,"lng":-73.65349},"locationName":"01955 COTE DE LIESSE","gravity":"Dommages matériels seulement","totalNumberOfVictims":0,"numberOfPedestrian":null,"numberOfCyclists":0,"weather":12,"date":"2015-02-17"},{"point":{"lat":45.505424,"lng":-73.788528},"locationName":"09790 GOUIN","gravity":"Dommages matériels seulement","totalNumberOfVictims":0,"numberOfPedestrian":null,"numberOfCyclists":0,"weather":17,"date":"2015-01-07"},{"point":{"lat":45.509183,"lng":-73.900217},"locationName":"02054 CH BORD DU LAC","gravity":"Dommages matériels seulement","totalNumberOfVictims":0,"numberOfPedestrian":null,"numberOfCyclists":0,"weather":11,"date":"2015-10-18"},{"point":{"lat":45.444966,"lng":-73.721695},"locationName":"00405 BOURKE","gravity":"Dommages matériels seulement","totalNumberOfVictims":0,"numberOfPedestrian":null,"numberOfCyclists":0,"weather":12,"date":"2015-05-30"},{"point":{"lat":45.492352,"lng":-73.698983},"locationName":"06801 RTE TRANSCANADIENNE","gravity":"Léger","totalNumberOfVictims":1,"numberOfPedestrian":null,"numberOfCyclists":0,"weather":11,"date":"2015-06-26"},{"point":{"lat":45.466533,"lng":-73.874025},"locationName":"04870 ST CHARLES","gravity":"Dommages matériels seulement","totalNumberOfVictims":0,"numberOfPedestrian":null,"numberOfCyclists":0,"weather":11,"date":"2015-12-08"},{"point":{"lat":45.484409,"lng":-73.859033},"locationName":"14855 BD PIERREFONDS","gravity":"Dommages matériels seulement","totalNumberOfVictims":0,"numberOfPedestrian":null,"numberOfCyclists":0,"weather":0,"date":"2015-05-25"},{"point":{"lat":45.471878,"lng":-73.826632},"locationName":"00260 LABROSSE","gravity":"Dommages matériels seulement","totalNumberOfVictims":0,"numberOfPedestrian":null,"numberOfCyclists":0,"weather":11,"date":"2015-10-27"},{"point":{"lat":45.482039,"lng":-73.797833},"locationName":"00013 BOVIS","gravity":"Dommages matériels seulement","totalNumberOfVictims":0,"numberOfPedestrian":null,"numberOfCyclists":0,"weather":12,"date":"2015-02-07"},{"point":{"lat":45.448339,"lng":-73.829677},"locationName":"00110 STILLVIEW","gravity":"Dommages matériels seulement","totalNumberOfVictims":0,"numberOfPedestrian":null,"numberOfCyclists":0,"weather":11,"date":"2015-06-17"},{"point":{"lat":45.495309,"lng":-73.679496},"locationName":"05901 TRANSCANADIENNE","gravity":"Léger","totalNumberOfVictims":1,"numberOfPedestrian":null,"numberOfCyclists":0,"weather":11,"date":"2015-06-27"},{"point":{"lat":45.519965,"lng":-73.696383},"locationName":"01791 CARDINAL","gravity":"Léger","totalNumberOfVictims":1,"numberOfPedestrian":null,"numberOfCyclists":0,"weather":11,"date":"2015-05-03"},{"point":{"lat":45.460162,"lng":-73.824992},"locationName":"00001 HOLIDAY","gravity":"Dommages matériels seulement","totalNumberOfVictims":0,"numberOfPedestrian":null,"numberOfCyclists":0,"weather":17,"date":"2015-01-12"},{"point":{"lat":45.505957,"lng":-73.821477},"locationName":"11750 PIERREFONDS","gravity":"Léger","totalNumberOfVictims":2,"numberOfPedestrian":null,"numberOfCyclists":0,"weather":11,"date":"2015-12-11"},{"point":{"lat":45.483216,"lng":-73.854106},"locationName":"04427 KING","gravity":"Dommages matériels seulement","totalNumberOfVictims":0,"numberOfPedestrian":null,"numberOfCyclists":0,"weather":11,"date":"2015-09-08"},{"point":{"lat":45.444498,"lng":-73.824936},"locationName":"00275 INGLEWOOD","gravity":"Léger","totalNumberOfVictims":1,"numberOfPedestrian":null,"numberOfCyclists":1,"weather":11,"date":"2015-04-12"},{"point":{"lat":45.445484,"lng":-73.741251},"locationName":"00400 DORVAL AV","gravity":"Dommages matériels seulement","totalNumberOfVictims":0,"numberOfPedestrian":null,"numberOfCyclists":0,"weather":11,"date":"2015-06-18"},{"point":{"lat":45.501469,"lng":-73.680922},"locationName":"02065 ST LOUIS","gravity":"Dommages matériels seulement","totalNumberOfVictims":0,"numberOfPedestrian":null,"numberOfCyclists":0,"weather":11,"date":"2015-01-29"},{"point":{"lat":45.449957,"lng":-73.832628},"locationName":"00175 STILLVIEW","gravity":"Léger","totalNumberOfVictims":1,"numberOfPedestrian":null,"numberOfCyclists":0,"weather":11,"date":"2015-02-23"},{"point":{"lat":45.444359,"lng":-73.74097},"locationName":"00352 AV DORVAL","gravity":"Léger","totalNumberOfVictims":1,"numberOfPedestrian":null,"numberOfCyclists":0,"weather":11,"date":"2015-01-16"},{"point":{"lat":45.514061,"lng":-73.683105},"locationName":"01515 BD DE LA COTE VERTU","gravity":"Dommages matériels seulement","totalNumberOfVictims":0,"numberOfPedestrian":null,"numberOfCyclists":0,"weather":12,"date":"2015-01-05"},{"point":{"lat":46.111481,"lng":-73.652559},"locationName":"00620 BORD DU LAC","gravity":"Dommages matériels seulement","totalNumberOfVictims":0,"numberOfPedestrian":null,"numberOfCyclists":0,"weather":11,"date":"2015-04-30"},{"point":{"lat":45.512245,"lng":-73.693894},"locationName":"01948 THIMENS","gravity":"Dommages matériels seulement","totalNumberOfVictims":0,"numberOfPedestrian":null,"numberOfCyclists":0,"weather":17,"date":"2015-01-09"},{"point":{"lat":45.499845,"lng":-73.86434},"locationName":"00015 PROULX","gravity":"Dommages matériels seulement","totalNumberOfVictims":0,"numberOfPedestrian":null,"numberOfCyclists":0,"weather":11,"date":"2015-05-02"},{"point":{"lat":45.452971,"lng":-73.883258},"locationName":"17978 ANTOINE FAUCON FACE A","gravity":"Dommages matériels seulement","totalNumberOfVictims":0,"numberOfPedestrian":null,"numberOfCyclists":0,"weather":11,"date":"2015-04-29"},{"point":{"lat":42.624876,"lng":-71.315757},"locationName":"00091 MULBERRY","gravity":"Dommages matériels seulement","totalNumberOfVictims":0,"numberOfPedestrian":null,"numberOfCyclists":0,"weather":11,"date":"2015-07-16"},{"point":{"lat":45.465508,"lng":-73.786389},"locationName":"01856 DES SOURCES","gravity":"Léger","totalNumberOfVictims":4,"numberOfPedestrian":null,"numberOfCyclists":0,"weather":17,"date":"2015-01-30"},{"point":{"lat":45.502001,"lng":-73.787484},"locationName":"01800 SUNNYBROOKE","gravity":"Léger","totalNumberOfVictims":1,"numberOfPedestrian":null,"numberOfCyclists":0,"weather":12,"date":"2015-08-17"},{"point":{"lat":45.445921,"lng":-73.741194},"locationName":"00395 AV DORVAL","gravity":"Dommages matériels seulement","totalNumberOfVictims":0,"numberOfPedestrian":null,"numberOfCyclists":0,"weather":12,"date":"2015-06-19"},{"point":{"lat":46.045773,"lng":-73.718361},"locationName":"03839 ST JEAN","gravity":"Dommages matériels seulement","totalNumberOfVictims":0,"numberOfPedestrian":null,"numberOfCyclists":0,"weather":11,"date":"2015-01-15"},{"point":{"lat":45.481653,"lng":-73.709305},"locationName":"00975 BD ROMEO VACHON","gravity":"Léger","totalNumberOfVictims":1,"numberOfPedestrian":null,"numberOfCyclists":0,"weather":11,"date":"2015-11-11"},{"point":{"lat":45.5044,"lng":-73.817754},"locationName":"04850 DES SOURCES","gravity":"Léger","totalNumberOfVictims":1,"numberOfPedestrian":null,"numberOfCyclists":0,"weather":11,"date":"2015-04-06"},{"point":{"lat":45.498053,"lng":-73.6795},"locationName":"02200 WARD","gravity":"Dommages matériels seulement","totalNumberOfVictims":0,"numberOfPedestrian":null,"numberOfCyclists":0,"weather":12,"date":"2015-02-20"},{"point":{"lat":45.520906,"lng":-73.591833},"locationName":"04886 FACE AU ST CHARLES","gravity":"Dommages matériels seulement","totalNumberOfVictims":0,"numberOfPedestrian":null,"numberOfCyclists":0,"weather":12,"date":"2015-04-23"},{"point":{"lat":45.456259,"lng":-73.80717},"locationName":"00009 HORNELL","gravity":"Dommages matériels seulement","totalNumberOfVictims":0,"numberOfPedestrian":null,"numberOfCyclists":0,"weather":0,"date":"2015-04-14"},{"point":{"lat":45.482288,"lng":-73.795037},"locationName":"03313 DES SOURCES","gravity":"Léger","totalNumberOfVictims":1,"numberOfPedestrian":null,"numberOfCyclists":0,"weather":14,"date":"2015-12-17"},{"point":{"lat":45.467088,"lng":-73.828568},"locationName":"00755 BD ST JEAN","gravity":"Léger","totalNumberOfVictims":1,"numberOfPedestrian":null,"numberOfCyclists":0,"weather":11,"date":"2015-11-23"},{"point":{"lat":45.486042,"lng":-73.690831},"locationName":"06500 COTE DE LIESSE","gravity":"Dommages matériels seulement","totalNumberOfVictims":0,"numberOfPedestrian":null,"numberOfCyclists":0,"weather":11,"date":"2015-03-31"},{"point":{"lat":45.483652,"lng":-73.694648},"locationName":"06755 COTE DE LIESSE","gravity":"Dommages matériels seulement","totalNumberOfVictims":0,"numberOfPedestrian":null,"numberOfCyclists":0,"weather":11,"date":"2015-02-20"},{"point":{"lat":45.5007,"lng":-73.758629},"locationName":"05875 KIERAN","gravity":"Dommages matériels seulement","totalNumberOfVictims":0,"numberOfPedestrian":null,"numberOfCyclists":0,"weather":0,"date":"2015-01-17"},{"point":{"lat":45.5284,"lng":-73.674126},"locationName":"00800 LEIGH CAPREOL","gravity":"Dommages matériels seulement","totalNumberOfVictims":0,"numberOfPedestrian":null,"numberOfCyclists":0,"weather":11,"date":"2015-01-20"},{"point":{"lat":45.492352,"lng":-73.698983},"locationName":"06801 TRANSCANADIENNE","gravity":"Dommages matériels seulement","totalNumberOfVictims":0,"numberOfPedestrian":null,"numberOfCyclists":0,"weather":11,"date":"2015-03-30"},{"point":{"lat":45.456472,"lng":-73.819766},"locationName":"00145 CONCORDE CRESCENT","gravity":"Dommages matériels seulement","totalNumberOfVictims":0,"numberOfPedestrian":null,"numberOfCyclists":0,"weather":11,"date":"2015-01-08"},{"point":{"lat":45.489959,"lng":-73.872707},"locationName":"00317 CHERRIER","gravity":"Dommages matériels seulement","totalNumberOfVictims":0,"numberOfPedestrian":null,"numberOfCyclists":0,"weather":14,"date":"2015-04-22"},{"point":{"lat":45.4732,"lng":-73.87635},"locationName":"00065 PLAGE DE LA RIVIERA","gravity":"Dommages matériels seulement","totalNumberOfVictims":0,"numberOfPedestrian":null,"numberOfCyclists":0,"weather":12,"date":"2015-04-12"},{"point":{"lat":45.451158,"lng":-73.783419},"locationName":"00019 DONEGAMI","gravity":"Dommages matériels seulement","totalNumberOfVictims":0,"numberOfPedestrian":null,"numberOfCyclists":0,"weather":12,"date":"2015-06-05"},{"point":{"lat":45.473084,"lng":-73.708737},"locationName":"09045 CH COTE DE LIESSE","gravity":"Dommages matériels seulement","totalNumberOfVictims":0,"numberOfPedestrian":null,"numberOfCyclists":0,"weather":12,"date":"2015-02-06"},{"point":{"lat":45.492352,"lng":-73.698983},"locationName":"06801 TRANSCANADIENNE","gravity":"Dommages matériels seulement","totalNumberOfVictims":0,"numberOfPedestrian":null,"numberOfCyclists":0,"weather":11,"date":"2015-08-17"},{"point":{"lat":45.987666,"lng":-73.452517},"locationName":"00950 ST JEAN","gravity":"Léger","totalNumberOfVictims":1,"numberOfPedestrian":null,"numberOfCyclists":0,"weather":11,"date":"2015-07-07"},{"point":{"lat":45.503735,"lng":-73.777951},"locationName":"04726 ALEXANDER","gravity":"Dommages matériels seulement","totalNumberOfVictims":0,"numberOfPedestrian":null,"numberOfCyclists":0,"weather":11,"date":"2015-06-26"},{"point":{"lat":45.5284,"lng":-73.674126},"locationName":"00700 LEIGH CAPREOL","gravity":"Léger","totalNumberOfVictims":1,"numberOfPedestrian":null,"numberOfCyclists":0,"weather":11,"date":"2015-05-01"},{"point":{"lat":45.498177,"lng":-73.765751},"locationName":"03499 ARR DOUGLAS B FLORE ANI","gravity":"Dommages matériels seulement","totalNumberOfVictims":0,"numberOfPedestrian":null,"numberOfCyclists":0,"weather":11,"date":"2015-02-16"},{"point":{"lat":45.481653,"lng":-73.709305},"locationName":"00975 ROMEO VACHON N","gravity":"Léger","totalNumberOfVictims":1,"numberOfPedestrian":null,"numberOfCyclists":0,"weather":11,"date":"2015-12-06"},{"point":{"lat":45.487725,"lng":-73.860838},"locationName":"15000 BD GOUIN O","gravity":"Dommages matériels seulement","totalNumberOfVictims":0,"numberOfPedestrian":null,"numberOfCyclists":0,"weather":11,"date":"2015-09-11"},{"point":{"lat":45.513202,"lng":-73.659818},"locationName":"03333 COTE DE LIESSE FACE","gravity":"Dommages matériels seulement","totalNumberOfVictims":0,"numberOfPedestrian":null,"numberOfCyclists":0,"weather":11,"date":"2015-01-11"},{"point":{"lat":45.477484,"lng":-73.790267},"locationName":"02915 DES SOURCES","gravity":"Dommages matériels seulement","totalNumberOfVictims":0,"numberOfPedestrian":null,"numberOfCyclists":0,"weather":11,"date":"2015-03-09"},{"point":{"lat":45.462969,"lng":-73.821686},"locationName":"00018 PL DE LA TRIADE","gravity":"Dommages matériels seulement","totalNumberOfVictims":0,"numberOfPedestrian":null,"numberOfCyclists":0,"weather":11,"date":"2015-05-20"},{"point":{"lat":45.492352,"lng":-73.698983},"locationName":"06801 TRANSCANADIENNE","gravity":"Dommages matériels seulement","totalNumberOfVictims":0,"numberOfPedestrian":null,"numberOfCyclists":0,"weather":0,"date":"2015-06-06"},{"point":{"lat":45.506527,"lng":-73.79371},"locationName":"09885 GOUIN O","gravity":"Léger","totalNumberOfVictims":1,"numberOfPedestrian":null,"numberOfCyclists":0,"weather":11,"date":"2015-09-24"},{"point":{"lat":45.512204,"lng":-73.691601},"locationName":"01260 MARCEL LAURIN","gravity":"Léger","totalNumberOfVictims":1,"numberOfPedestrian":null,"numberOfCyclists":0,"weather":11,"date":"2015-03-11"},{"point":{"lat":45.429648,"lng":-73.858343},"locationName":"00077 BRUNSWICK","gravity":"Dommages matériels seulement","totalNumberOfVictims":0,"numberOfPedestrian":null,"numberOfCyclists":0,"weather":12,"date":"2015-11-06"},{"point":{"lat":45.985287,"lng":-73.448432},"locationName":"00800 ST JEAN","gravity":"Léger","totalNumberOfVictims":1,"numberOfPedestrian":null,"numberOfCyclists":0,"weather":0,"date":"2015-11-29"},{"point":{"lat":45.522214,"lng":-73.653974},"locationName":"02365 DE LA COTE DE LIESSE","gravity":"Dommages matériels seulement","totalNumberOfVictims":0,"numberOfPedestrian":null,"numberOfCyclists":0,"weather":11,"date":"2015-07-16"},{"point":{"lat":45.481653,"lng":-73.709305},"locationName":"00975 ROMEO VACHON","gravity":"Léger","totalNumberOfVictims":1,"numberOfPedestrian":null,"numberOfCyclists":0,"weather":11,"date":"2015-04-03"},{"point":{"lat":45.933583,"lng":-73.480621},"locationName":"00325 ST JEAN","gravity":"Léger","totalNumberOfVictims":1,"numberOfPedestrian":null,"numberOfCyclists":0,"weather":11,"date":"2015-06-01"},{"point":{"lat":45.988497,"lng":-73.453857},"locationName":"01000 ST JEAN","gravity":"Dommages matériels seulement","totalNumberOfVictims":0,"numberOfPedestrian":null,"numberOfCyclists":0,"weather":11,"date":"2015-04-07"},{"point":{"lat":45.439276,"lng":-73.730301},"locationName":"00060 MARTIN","gravity":"Dommages matériels seulement","totalNumberOfVictims":0,"numberOfPedestrian":null,"numberOfCyclists":0,"weather":11,"date":"2015-11-09"},{"point":{"lat":45.931911,"lng":-73.490744},"locationName":"00395 ST JEAN","gravity":"Dommages matériels seulement","totalNumberOfVictims":0,"numberOfPedestrian":null,"numberOfCyclists":0,"weather":11,"date":"2015-03-02"},{"point":{"lat":45.482844,"lng":-73.844728},"locationName":"04440 BD ST JEAN","gravity":"Léger","totalNumberOfVictims":1,"numberOfPedestrian":null,"numberOfCyclists":0,"weather":11,"date":"2015-08-10"},{"point":{"lat":45.481653,"lng":-73.709305},"locationName":"00975 ROMEO VACHON","gravity":"Dommages matériels seulement","totalNumberOfVictims":0,"numberOfPedestrian":null,"numberOfCyclists":0,"weather":11,"date":"2015-02-16"},{"point":{"lat":45.502479,"lng":-73.842},"locationName":"13115 BD GOUIN O","gravity":"Dommages matériels seulement","totalNumberOfVictims":0,"numberOfPedestrian":null,"numberOfCyclists":0,"weather":11,"date":"2015-06-12"},{"point":{"lat":45.5284,"lng":-73.674126},"locationName":"00800 LEIGH CAPREOL","gravity":"Dommages matériels seulement","totalNumberOfVictims":0,"numberOfPedestrian":null,"numberOfCyclists":0,"weather":12,"date":"2015-02-16"},{"point":{"lat":45.482288,"lng":-73.795037},"locationName":"03313 DES SOURCES","gravity":"Dommages matériels seulement","totalNumberOfVictims":0,"numberOfPedestrian":null,"numberOfCyclists":0,"weather":11,"date":"2015-09-05"},{"point":{"lat":45.50843,"lng":-73.821617},"locationName":"05000 BD DES SOURCES","gravity":"Dommages matériels seulement","totalNumberOfVictims":0,"numberOfPedestrian":null,"numberOfCyclists":0,"weather":11,"date":"2015-08-22"},{"point":{"lat":32.390288,"lng":-96.850416},"locationName":"00500 MCMILLAN","gravity":"Dommages matériels seulement","totalNumberOfVictims":0,"numberOfPedestrian":null,"numberOfCyclists":0,"weather":17,"date":"2015-02-21"},{"point":{"lat":45.490626,"lng":-73.853725},"locationName":"14375 BD DE PIERREFONDS MTL","gravity":"Dommages matériels seulement","totalNumberOfVictims":0,"numberOfPedestrian":null,"numberOfCyclists":0,"weather":11,"date":"2015-02-10"},{"point":{"lat":45.481653,"lng":-73.709305},"locationName":"00975 ROMEO VACHON","gravity":"Léger","totalNumberOfVictims":1,"numberOfPedestrian":null,"numberOfCyclists":0,"weather":11,"date":"2015-10-25"},{"point":{"lat":45.644266,"lng":-73.516595},"locationName":"03597 ST JEAN","gravity":"Dommages matériels seulement","totalNumberOfVictims":0,"numberOfPedestrian":null,"numberOfCyclists":0,"weather":14,"date":"2015-11-13"},{"point":{"lat":45.492352,"lng":-73.698983},"locationName":"06801 TRANSCANADIENNE","gravity":"Léger","totalNumberOfVictims":2,"numberOfPedestrian":null,"numberOfCyclists":0,"weather":13,"date":"2015-09-28"},{"point":{"lat":45.512245,"lng":-73.693894},"locationName":"01948 THIMENS","gravity":"Dommages matériels seulement","totalNumberOfVictims":0,"numberOfPedestrian":null,"numberOfCyclists":0,"weather":17,"date":"2015-01-09"},{"point":{"lat":45.467536,"lng":-73.720358},"locationName":"10300 RYAN","gravity":"Dommages matériels seulement","totalNumberOfVictims":0,"numberOfPedestrian":null,"numberOfCyclists":0,"weather":11,"date":"2015-09-04"},{"point":{"lat":45.447445,"lng":-73.743121},"locationName":"00825 MTL TOR STAT","gravity":"Léger","totalNumberOfVictims":1,"numberOfPedestrian":null,"numberOfCyclists":0,"weather":11,"date":"2015-09-23"},{"point":{"lat":45.519602,"lng":-73.655675},"locationName":"02595 CH COTE DE LIESSE","gravity":"Léger","totalNumberOfVictims":3,"numberOfPedestrian":null,"numberOfCyclists":0,"weather":11,"date":"2015-04-29"},{"point":{"lat":45.499063,"lng":-73.715875},"locationName":"03581 ASHBY","gravity":"Dommages matériels seulement","totalNumberOfVictims":0,"numberOfPedestrian":null,"numberOfCyclists":0,"weather":11,"date":"2015-06-17"},{"point":{"lat":45.482443,"lng":-73.768203},"locationName":"02600 MARIE CURIE","gravity":"Dommages matériels seulement","totalNumberOfVictims":0,"numberOfPedestrian":null,"numberOfCyclists":0,"weather":14,"date":"2015-06-08"},{"point":{"lat":45.496828,"lng":-73.704462},"locationName":"03300 COTE VERTU","gravity":"Dommages matériels seulement","totalNumberOfVictims":0,"numberOfPedestrian":null,"numberOfCyclists":0,"weather":14,"date":"2015-06-12"},{"point":{"lat":45.485894,"lng":-73.757335},"locationName":"02800 AV MARIE CURIE","gravity":"Dommages matériels seulement","totalNumberOfVictims":0,"numberOfPedestrian":null,"numberOfCyclists":0,"weather":12,"date":"2015-06-01"},{"point":{"lat":45.464483,"lng":-73.811392},"locationName":"00133 HYMUS","gravity":"Dommages matériels seulement","totalNumberOfVictims":0,"numberOfPedestrian":null,"numberOfCyclists":0,"weather":0,"date":"2015-01-09"},{"point":{"lat":45.466156,"lng":-73.790392},"locationName":"00155 AVRO","gravity":"Léger","totalNumberOfVictims":1,"numberOfPedestrian":null,"numberOfCyclists":0,"weather":12,"date":"2015-07-07"},{"point":{"lat":45.439077,"lng":-73.754076},"locationName":"01350 BORD DU LAC","gravity":"Léger","totalNumberOfVictims":1,"numberOfPedestrian":null,"numberOfCyclists":1,"weather":11,"date":"2015-09-06"},{"point":{"lat":45.463577,"lng":-73.838221},"locationName":"00029 PORTSMOUTH","gravity":"Dommages matériels seulement","totalNumberOfVictims":0,"numberOfPedestrian":null,"numberOfCyclists":0,"weather":11,"date":"2015-03-28"},{"point":{"lat":45.446585,"lng":-73.742191},"locationName":"00310 AV DORVAL","gravity":"Léger","totalNumberOfVictims":2,"numberOfPedestrian":null,"numberOfCyclists":0,"weather":11,"date":"2015-08-03"},{"point":{"lat":45.529641,"lng":-73.675607},"locationName":"00145 MARCOTTE","gravity":"Dommages matériels seulement","totalNumberOfVictims":0,"numberOfPedestrian":null,"numberOfCyclists":0,"weather":11,"date":"2015-01-13"},{"point":{"lat":45.497189,"lng":-73.680988},"locationName":"02300 WARD","gravity":"Dommages matériels seulement","totalNumberOfVictims":0,"numberOfPedestrian":null,"numberOfCyclists":0,"weather":11,"date":"2015-03-21"},{"point":{"lat":45.523339,"lng":-73.695767},"locationName":"01980 CH LAVAL","gravity":"Dommages matériels seulement","totalNumberOfVictims":0,"numberOfPedestrian":null,"numberOfCyclists":0,"weather":12,"date":"2015-06-11"},{"point":{"lat":45.512282,"lng":-73.615742},"locationName":"00649 ST GERMAIN","gravity":"Dommages matériels seulement","totalNumberOfVictims":0,"numberOfPedestrian":null,"numberOfCyclists":0,"weather":17,"date":"2015-02-10"},{"point":{"lat":45.496828,"lng":-73.704462},"locationName":"03300 COTE VERTU","gravity":"Dommages matériels seulement","totalNumberOfVictims":0,"numberOfPedestrian":null,"numberOfCyclists":0,"weather":14,"date":"2015-06-12"},{"point":{"lat":45.483639,"lng":-73.860122},"locationName":"14875 BD DE PIERREFONDS","gravity":"Dommages matériels seulement","totalNumberOfVictims":0,"numberOfPedestrian":null,"numberOfCyclists":0,"weather":12,"date":"2015-05-16"},{"point":{"lat":45.495827,"lng":-73.677803},"locationName":"05701 TRANSCANADIENNE","gravity":"Dommages matériels seulement","totalNumberOfVictims":0,"numberOfPedestrian":null,"numberOfCyclists":0,"weather":11,"date":"2015-09-12"},{"point":{"lat":45.504332,"lng":-73.826363},"locationName":"12210 PIERREFONDS","gravity":"Dommages matériels seulement","totalNumberOfVictims":0,"numberOfPedestrian":null,"numberOfCyclists":0,"weather":11,"date":"2015-06-26"},{"point":{"lat":45.487117,"lng":-73.822119},"locationName":"02995 LAKE","gravity":"Grave","totalNumberOfVictims":2,"numberOfPedestrian":null,"numberOfCyclists":0,"weather":11,"date":"2015-09-22"},{"point":{"lat":45.484925,"lng":-73.858395},"locationName":"14810 PIERREFONDS","gravity":"Dommages matériels seulement","totalNumberOfVictims":0,"numberOfPedestrian":null,"numberOfCyclists":0,"weather":11,"date":"2015-07-23"},{"point":{"lat":45.505132,"lng":-73.787113},"locationName":"09740 GOUIN O","gravity":"Dommages matériels seulement","totalNumberOfVictims":0,"numberOfPedestrian":null,"numberOfCyclists":0,"weather":11,"date":"2015-08-22"},{"point":{"lat":45.48715,"lng":-73.717152},"locationName":"04545 COTE VERTU","gravity":"Léger","totalNumberOfVictims":1,"numberOfPedestrian":null,"numberOfCyclists":0,"weather":12,"date":"2015-04-24"},{"point":{"lat":45.489057,"lng":-73.77037},"locationName":"01300 TRANSCANADIENNE","gravity":"Dommages matériels seulement","totalNumberOfVictims":0,"numberOfPedestrian":null,"numberOfCyclists":0,"weather":11,"date":"2015-07-20"},{"point":{"lat":45.482078,"lng":-73.789898},"locationName":"02291 TRANSCANADIENNE","gravity":"Dommages matériels seulement","totalNumberOfVictims":0,"numberOfPedestrian":null,"numberOfCyclists":0,"weather":12,"date":"2015-08-19"},{"point":{"lat":45.492352,"lng":-73.698983},"locationName":"06801 TRANSCANADIENNE","gravity":"Dommages matériels seulement","totalNumberOfVictims":0,"numberOfPedestrian":null,"numberOfCyclists":0,"weather":11,"date":"2015-04-11"},{"point":{"lat":45.50528,"lng":-73.665637},"locationName":"10425 COTE DE LIESSE","gravity":"Dommages matériels seulement","totalNumberOfVictims":0,"numberOfPedestrian":null,"numberOfCyclists":0,"weather":14,"date":"2015-08-11"},{"point":{"lat":45.498671,"lng":-73.879402},"locationName":"00913 THIBAUDEAU","gravity":"Dommages matériels seulement","totalNumberOfVictims":0,"numberOfPedestrian":null,"numberOfCyclists":0,"weather":11,"date":"2015-11-08"},{"point":{"lat":45.987625,"lng":-73.452449},"locationName":"00955 ST JEAN","gravity":"Dommages matériels seulement","totalNumberOfVictims":0,"numberOfPedestrian":null,"numberOfCyclists":0,"weather":11,"date":"2015-11-04"},{"point":{"lat":45.512786,"lng":-73.832936},"locationName":"12378 PAVILLON","gravity":"Dommages matériels seulement","totalNumberOfVictims":0,"numberOfPedestrian":null,"numberOfCyclists":0,"weather":17,"date":"2015-02-03"},{"point":{"lat":45.530293,"lng":-73.72268},"locationName":"06111 TRANSCANADIENNE DIR O","gravity":"Dommages matériels seulement","totalNumberOfVictims":0,"numberOfPedestrian":null,"numberOfCyclists":0,"weather":12,"date":"2015-09-25"},{"point":{"lat":45.490534,"lng":-73.692342},"locationName":"09191 CAVENDISH","gravity":"Dommages matériels seulement","totalNumberOfVictims":0,"numberOfPedestrian":null,"numberOfCyclists":0,"weather":11,"date":"2015-05-26"},{"point":{"lat":45.53089,"lng":-73.670734},"locationName":"00101 DEGUIRE","gravity":"Dommages matériels seulement","totalNumberOfVictims":0,"numberOfPedestrian":null,"numberOfCyclists":0,"weather":11,"date":"2015-07-10"},{"point":{"lat":45.47391,"lng":-73.707042},"locationName":"08850 COTE DE LIESSE","gravity":"Dommages matériels seulement","totalNumberOfVictims":0,"numberOfPedestrian":null,"numberOfCyclists":0,"weather":12,"date":"2015-04-24"},{"point":{"lat":45.512548,"lng":-73.616354},"locationName":"00811 ST GERMAIN","gravity":"Dommages matériels seulement","totalNumberOfVictims":0,"numberOfPedestrian":null,"numberOfCyclists":0,"weather":12,"date":"2015-05-27"},{"point":{"lat":45.517348,"lng":-73.685854},"locationName":"01300 PRES OUIMET","gravity":"Dommages matériels seulement","totalNumberOfVictims":0,"numberOfPedestrian":null,"numberOfCyclists":0,"weather":11,"date":"2015-02-18"},{"point":{"lat":45.486452,"lng":-73.803211},"locationName":"00398 BARCELONE FACE","gravity":"Dommages matériels seulement","totalNumberOfVictims":0,"numberOfPedestrian":null,"numberOfCyclists":0,"weather":11,"date":"2015-01-10"},{"point":{"lat":45.492469,"lng":-73.698613},"locationName":"06831 TRANSCANADIENNE","gravity":"Dommages matériels seulement","totalNumberOfVictims":0,"numberOfPedestrian":null,"numberOfCyclists":0,"weather":11,"date":"2015-07-27"},{"point":{"lat":45.497413,"lng":-73.67415},"locationName":"04225 RTE TRANSCANADIENNE","gravity":"Léger","totalNumberOfVictims":1,"numberOfPedestrian":null,"numberOfCyclists":0,"weather":11,"date":"2015-12-23"},{"point":{"lat":45.511223,"lng":-73.677843},"locationName":"00771 DECARIE","gravity":"Dommages matériels seulement","totalNumberOfVictims":0,"numberOfPedestrian":null,"numberOfCyclists":0,"weather":12,"date":"2015-05-25"},{"point":{"lat":45.485158,"lng":-73.797804},"locationName":"03347 BD DES SOURCES","gravity":"Dommages matériels seulement","totalNumberOfVictims":0,"numberOfPedestrian":null,"numberOfCyclists":0,"weather":11,"date":"2015-11-23"},{"point":{"lat":45.491079,"lng":-73.711782},"locationName":"04036 BD COTE VERTU","gravity":"Léger","totalNumberOfVictims":1,"numberOfPedestrian":null,"numberOfCyclists":0,"weather":14,"date":"2015-06-12"},{"point":{"lat":45.493342,"lng":-73.708876},"locationName":"03836 BD COTE VERTU ST LAURENT","gravity":"Léger","totalNumberOfVictims":1,"numberOfPedestrian":null,"numberOfCyclists":0,"weather":11,"date":"2015-01-14"},{"point":{"lat":45.603186,"lng":-73.511648},"locationName":"00355 HURTEAU","gravity":"Dommages matériels seulement","totalNumberOfVictims":0,"numberOfPedestrian":null,"numberOfCyclists":0,"weather":14,"date":"2015-09-29"},{"point":{"lat":45.481529,"lng":-73.843159},"locationName":"04377 BD ST JEAN","gravity":"Dommages matériels seulement","totalNumberOfVictims":0,"numberOfPedestrian":null,"numberOfCyclists":0,"weather":11,"date":"2015-04-24"},{"point":{"lat":45.485096,"lng":-73.813046},"locationName":"00161 MONTEVISTA","gravity":"Dommages matériels seulement","totalNumberOfVictims":0,"numberOfPedestrian":null,"numberOfCyclists":0,"weather":11,"date":"2015-03-21"},{"point":{"lat":45.517863,"lng":-73.702615},"locationName":"02056 FACE DE ST EXUPERY","gravity":"Léger","totalNumberOfVictims":1,"numberOfPedestrian":null,"numberOfCyclists":1,"weather":11,"date":"2015-06-12"},{"point":{"lat":45.483652,"lng":-73.694648},"locationName":"06755 COTE DE LIESSE","gravity":"Dommages matériels seulement","totalNumberOfVictims":0,"numberOfPedestrian":null,"numberOfCyclists":0,"weather":17,"date":"2015-03-15"},{"point":{"lat":45.467822,"lng":-73.828843},"locationName":"00305 BRUNSWICK","gravity":"Léger","totalNumberOfVictims":1,"numberOfPedestrian":null,"numberOfCyclists":0,"weather":11,"date":"2015-10-26"},{"point":{"lat":45.50367,"lng":-73.67579},"locationName":"00300 MARCEL LAURIN","gravity":"Dommages matériels seulement","totalNumberOfVictims":0,"numberOfPedestrian":null,"numberOfCyclists":0,"weather":17,"date":"2015-01-30"},{"point":{"lat":45.517974,"lng":-73.697343},"locationName":"01761 GRENET","gravity":"Dommages matériels seulement","totalNumberOfVictims":0,"numberOfPedestrian":null,"numberOfCyclists":0,"weather":12,"date":"2015-06-15"},{"point":{"lat":45.483321,"lng":-73.721673},"locationName":"05000 COTE VERTU","gravity":"Dommages matériels seulement","totalNumberOfVictims":0,"numberOfPedestrian":null,"numberOfCyclists":0,"weather":11,"date":"2015-03-06"},{"point":{"lat":45.510865,"lng":-73.809284},"locationName":"10438 GOUIN","gravity":"Léger","totalNumberOfVictims":2,"numberOfPedestrian":null,"numberOfCyclists":0,"weather":14,"date":"2015-05-31"},{"point":{"lat":45.504263,"lng":-73.664592},"locationName":"13000 COTE DE LIESSE","gravity":"Dommages matériels seulement","totalNumberOfVictims":0,"numberOfPedestrian":null,"numberOfCyclists":0,"weather":0,"date":"2015-07-25"},{"point":{"lat":45.499511,"lng":-73.701108},"locationName":"11015 CAVENDISH","gravity":"Dommages matériels seulement","totalNumberOfVictims":0,"numberOfPedestrian":null,"numberOfCyclists":0,"weather":11,"date":"2015-01-17"},{"point":{"lat":45.646211,"lng":-73.523881},"locationName":"04010 ST JEAN","gravity":"Dommages matériels seulement","totalNumberOfVictims":0,"numberOfPedestrian":null,"numberOfCyclists":0,"weather":12,"date":"2015-07-22"},{"point":{"lat":45.495224,"lng":-73.680891},"locationName":"05977 TRANSCANADIENNE","gravity":"Dommages matériels seulement","totalNumberOfVictims":0,"numberOfPedestrian":null,"numberOfCyclists":0,"weather":14,"date":"2015-12-01"},{"point":{"lat":45.516864,"lng":-73.698749},"locationName":"01757 PRES MARCEL LAURIN","gravity":"Dommages matériels seulement","totalNumberOfVictims":0,"numberOfPedestrian":null,"numberOfCyclists":0,"weather":11,"date":"2015-06-18"},{"point":{"lat":45.5284,"lng":-73.674126},"locationName":"00800 LEIGH CAPREOL","gravity":"Dommages matériels seulement","totalNumberOfVictims":0,"numberOfPedestrian":null,"numberOfCyclists":0,"weather":11,"date":"2015-08-04"},{"point":{"lat":45.51903,"lng":-73.882833},"locationName":"02317 CH BORD DU LAC","gravity":"Dommages matériels seulement","totalNumberOfVictims":0,"numberOfPedestrian":null,"numberOfCyclists":0,"weather":11,"date":"2015-08-24"},{"point":{"lat":45.5284,"lng":-73.674126},"locationName":"00800 LEIGH CAPREOL","gravity":"Léger","totalNumberOfVictims":1,"numberOfPedestrian":null,"numberOfCyclists":0,"weather":11,"date":"2015-08-14"},{"point":{"lat":45.482247,"lng":-73.869069},"locationName":"15746 BD GOUIN O","gravity":"Léger","totalNumberOfVictims":1,"numberOfPedestrian":null,"numberOfCyclists":0,"weather":11,"date":"2015-07-05"},{"point":{"lat":45.505805,"lng":-73.822074},"locationName":"11851 PIERREFONDS","gravity":"Dommages matériels seulement","totalNumberOfVictims":0,"numberOfPedestrian":null,"numberOfCyclists":0,"weather":12,"date":"2015-11-14"},{"point":{"lat":45.524951,"lng":-73.670366},"locationName":"00990 JULES POITRAS","gravity":"Dommages matériels seulement","totalNumberOfVictims":0,"numberOfPedestrian":null,"numberOfCyclists":0,"weather":12,"date":"2015-03-30"},{"point":{"lat":45.51882,"lng":-73.728329},"locationName":"03280 TOUPIN","gravity":"Dommages matériels seulement","totalNumberOfVictims":0,"numberOfPedestrian":null,"numberOfCyclists":0,"weather":11,"date":"2015-05-17"},{"point":{"lat":45.495949,"lng":-73.70557},"locationName":"03330 COTE VERTU","gravity":"Dommages matériels seulement","totalNumberOfVictims":0,"numberOfPedestrian":null,"numberOfCyclists":0,"weather":11,"date":"2015-05-17"},{"point":{"lat":45.49824,"lng":-73.825222},"locationName":"00108 ANSELME LAVIGNE","gravity":"Dommages matériels seulement","totalNumberOfVictims":0,"numberOfPedestrian":null,"numberOfCyclists":0,"weather":11,"date":"2015-11-08"},{"point":{"lat":45.438886,"lng":-73.824949},"locationName":"00024 SALISBURY","gravity":"Dommages matériels seulement","totalNumberOfVictims":0,"numberOfPedestrian":null,"numberOfCyclists":0,"weather":11,"date":"2015-10-17"},{"point":{"lat":45.438912,"lng":-73.824373},"locationName":"00020 SALISBURY","gravity":"Dommages matériels seulement","totalNumberOfVictims":0,"numberOfPedestrian":null,"numberOfCyclists":0,"weather":11,"date":"2015-02-18"},{"point":{"lat":45.445921,"lng":-73.741194},"locationName":"00395 AV DORVAL","gravity":"Dommages matériels seulement","totalNumberOfVictims":0,"numberOfPedestrian":null,"numberOfCyclists":0,"weather":11,"date":"2015-08-18"},{"point":{"lat":45.48342,"lng":-73.786973},"locationName":"02101 TRANSCANADIENNE","gravity":"Léger","totalNumberOfVictims":1,"numberOfPedestrian":null,"numberOfCyclists":0,"weather":11,"date":"2015-09-16"},{"point":{"lat":45.511336,"lng":-73.732542},"locationName":"06655 HENRI BOURASSA","gravity":"Dommages matériels seulement","totalNumberOfVictims":0,"numberOfPedestrian":null,"numberOfCyclists":0,"weather":17,"date":"2015-01-07"},{"point":{"lat":45.527047,"lng":-73.698488},"locationName":"02430 O BRIEN","gravity":"Dommages matériels seulement","totalNumberOfVictims":0,"numberOfPedestrian":null,"numberOfCyclists":0,"weather":12,"date":"2015-01-05"},{"point":{"lat":45.484429,"lng":-73.859005},"locationName":"14850 PIERREFONDS","gravity":"Dommages matériels seulement","totalNumberOfVictims":0,"numberOfPedestrian":null,"numberOfCyclists":0,"weather":11,"date":"2015-07-06"},{"point":{"lat":45.449957,"lng":-73.832628},"locationName":"00175 STILLVIEW","gravity":"Dommages matériels seulement","totalNumberOfVictims":0,"numberOfPedestrian":null,"numberOfCyclists":0,"weather":15,"date":"2015-12-02"},{"point":{"lat":45.519534,"lng":-73.881558},"locationName":"02325 BORD DU LAC FACE AU","gravity":"Dommages matériels seulement","totalNumberOfVictims":0,"numberOfPedestrian":null,"numberOfCyclists":0,"weather":0,"date":"2015-05-26"},{"point":{"lat":45.519682,"lng":-73.615604},"locationName":"00800 STUART GRAHAM NO 201","gravity":"Dommages matériels seulement","totalNumberOfVictims":0,"numberOfPedestrian":null,"numberOfCyclists":0,"weather":11,"date":"2015-08-31"},{"point":{"lat":45.494859,"lng":-73.689466},"locationName":"06465 TRANSCANADIENNE","gravity":"Dommages matériels seulement","totalNumberOfVictims":0,"numberOfPedestrian":null,"numberOfCyclists":0,"weather":11,"date":"2015-05-22"},{"point":{"lat":45.520192,"lng":-73.73024},"locationName":"03465 TOUPIN","gravity":"Grave","totalNumberOfVictims":2,"numberOfPedestrian":null,"numberOfCyclists":0,"weather":11,"date":"2015-05-30"},{"point":{"lat":45.492352,"lng":-73.698983},"locationName":"06801 TRANSCANADIENNE","gravity":"Léger","totalNumberOfVictims":1,"numberOfPedestrian":null,"numberOfCyclists":0,"weather":11,"date":"2015-07-17"},{"point":{"lat":45.502547,"lng":-73.830835},"locationName":"12472 RAICHE","gravity":"Dommages matériels seulement","totalNumberOfVictims":0,"numberOfPedestrian":null,"numberOfCyclists":0,"weather":11,"date":"2015-11-30"},{"point":{"lat":45.430433,"lng":-73.823657},"locationName":"00019 CARTIER","gravity":"Dommages matériels seulement","totalNumberOfVictims":0,"numberOfPedestrian":null,"numberOfCyclists":0,"weather":11,"date":"2015-07-20"},{"point":{"lat":45.487969,"lng":-73.805356},"locationName":"00136 ATHENES","gravity":"Dommages matériels seulement","totalNumberOfVictims":0,"numberOfPedestrian":null,"numberOfCyclists":0,"weather":14,"date":"2015-06-16"},{"point":{"lat":45.451523,"lng":-73.891506},"locationName":"18661 ANTOINE FAUCON","gravity":"Dommages matériels seulement","totalNumberOfVictims":0,"numberOfPedestrian":null,"numberOfCyclists":0,"weather":11,"date":"2015-10-12"},{"point":{"lat":45.516373,"lng":-73.689448},"locationName":"01615 TASSE","gravity":"Léger","totalNumberOfVictims":1,"numberOfPedestrian":null,"numberOfCyclists":0,"weather":11,"date":"2015-03-24"},{"point":{"lat":45.485888,"lng":-73.828835},"locationName":"01230 TECUMSEH","gravity":"Dommages matériels seulement","totalNumberOfVictims":0,"numberOfPedestrian":null,"numberOfCyclists":0,"weather":11,"date":"2015-02-24"},{"point":{"lat":45.447445,"lng":-73.743121},"locationName":"00825 MONTREAL TORONTO","gravity":"Dommages matériels seulement","totalNumberOfVictims":0,"numberOfPedestrian":null,"numberOfCyclists":0,"weather":11,"date":"2015-09-20"},{"point":{"lat":45.483902,"lng":-73.784371},"locationName":"02000 TRANSCANADIENNE","gravity":"Dommages matériels seulement","totalNumberOfVictims":0,"numberOfPedestrian":null,"numberOfCyclists":0,"weather":11,"date":"2015-07-20"},{"point":{"lat":45.460162,"lng":-73.824992},"locationName":"00001 HOLIDAY","gravity":"Dommages matériels seulement","totalNumberOfVictims":0,"numberOfPedestrian":null,"numberOfCyclists":0,"weather":11,"date":"2015-10-22"},{"point":{"lat":45.495827,"lng":-73.677803},"locationName":"05701 TRANSCANADIENNE","gravity":"Léger","totalNumberOfVictims":1,"numberOfPedestrian":null,"numberOfCyclists":0,"weather":11,"date":"2015-09-21"},{"point":{"lat":45.446464,"lng":-73.732476},"locationName":"00391 MARTIN","gravity":"Dommages matériels seulement","totalNumberOfVictims":0,"numberOfPedestrian":null,"numberOfCyclists":0,"weather":11,"date":"2015-07-09"},{"point":{"lat":45.517492,"lng":-73.885635},"locationName":"02295 CH BORD DU LAC","gravity":"Dommages matériels seulement","totalNumberOfVictims":0,"numberOfPedestrian":null,"numberOfCyclists":0,"weather":12,"date":"2015-01-11"},{"point":{"lat":45.489523,"lng":-73.718699},"locationName":"07905 TRANSCANADIENNE","gravity":"Dommages matériels seulement","totalNumberOfVictims":0,"numberOfPedestrian":null,"numberOfCyclists":0,"weather":12,"date":"2015-01-13"},{"point":{"lat":45.504839,"lng":-73.678671},"locationName":"00555 BD MARCEL LAURIN","gravity":"Dommages matériels seulement","totalNumberOfVictims":0,"numberOfPedestrian":null,"numberOfCyclists":0,"weather":11,"date":"2015-03-01"},{"point":{"lat":45.496076,"lng":-73.809488},"locationName":"04275 DES SOURCES","gravity":"Léger","totalNumberOfVictims":1,"numberOfPedestrian":null,"numberOfCyclists":0,"weather":11,"date":"2015-02-23"},{"point":{"lat":45.487661,"lng":-73.800237},"locationName":"03627 BD DES SOURCES","gravity":"Dommages matériels seulement","totalNumberOfVictims":0,"numberOfPedestrian":null,"numberOfCyclists":0,"weather":11,"date":"2015-07-21"},{"point":{"lat":45.515219,"lng":-73.696096},"locationName":"01605 MARCEL LAURIER","gravity":"Dommages matériels seulement","totalNumberOfVictims":0,"numberOfPedestrian":null,"numberOfCyclists":0,"weather":11,"date":"2015-06-11"},{"point":{"lat":45.489523,"lng":-73.718699},"locationName":"07905 TRANS CANADIENNE O","gravity":"Dommages matériels seulement","totalNumberOfVictims":0,"numberOfPedestrian":null,"numberOfCyclists":0,"weather":11,"date":"2015-04-16"},{"point":{"lat":45.513397,"lng":-73.683943},"locationName":"01565 BD COTE VERTU","gravity":"Léger","totalNumberOfVictims":1,"numberOfPedestrian":null,"numberOfCyclists":0,"weather":11,"date":"2015-06-19"},{"point":{"lat":45.494508,"lng":-73.683248},"locationName":"06150 TRANSCANADIENNE","gravity":"Dommages matériels seulement","totalNumberOfVictims":0,"numberOfPedestrian":null,"numberOfCyclists":0,"weather":12,"date":"2015-06-11"},{"point":{"lat":45.463524,"lng":-73.836943},"locationName":"00400 BRUNSWICK","gravity":"Dommages matériels seulement","totalNumberOfVictims":0,"numberOfPedestrian":null,"numberOfCyclists":0,"weather":11,"date":"2015-03-01"},{"point":{"lat":45.590154,"lng":-73.519167},"locationName":"02113 ST REGIS","gravity":"Dommages matériels seulement","totalNumberOfVictims":0,"numberOfPedestrian":null,"numberOfCyclists":0,"weather":11,"date":"2015-04-24"},{"point":{"lat":45.429831,"lng":-73.859303},"locationName":"00088 BRUNSWICK","gravity":"Dommages matériels seulement","totalNumberOfVictims":0,"numberOfPedestrian":null,"numberOfCyclists":0,"weather":11,"date":"2015-10-17"},{"point":{"lat":45.483949,"lng":-73.796633},"locationName":"03339 DES SOURCES","gravity":"Léger","totalNumberOfVictims":1,"numberOfPedestrian":null,"numberOfCyclists":0,"weather":11,"date":"2015-11-04"},{"point":{"lat":45.477849,"lng":-73.704516},"locationName":"00222 MTEE DE LIESSE","gravity":"Dommages matériels seulement","totalNumberOfVictims":0,"numberOfPedestrian":null,"numberOfCyclists":0,"weather":12,"date":"2015-01-08"},{"point":{"lat":45.458189,"lng":-73.808636},"locationName":"00178 BRAEBOOK","gravity":"Dommages matériels seulement","totalNumberOfVictims":0,"numberOfPedestrian":null,"numberOfCyclists":0,"weather":19,"date":"2015-01-03"},{"point":{"lat":45.491043,"lng":-73.744216},"locationName":"09275 TRANSCANADIENNE","gravity":"Léger","totalNumberOfVictims":1,"numberOfPedestrian":null,"numberOfCyclists":0,"weather":11,"date":"2015-02-27"},{"point":{"lat":45.485395,"lng":-73.79803},"locationName":"03343 DES SOURCES","gravity":"Dommages matériels seulement","totalNumberOfVictims":0,"numberOfPedestrian":null,"numberOfCyclists":0,"weather":11,"date":"2015-03-22"},{"point":{"lat":45.516795,"lng":-73.691365},"locationName":"01528 CARDINAL","gravity":"Léger","totalNumberOfVictims":2,"numberOfPedestrian":null,"numberOfCyclists":0,"weather":14,"date":"2015-06-10"},{"point":{"lat":45.484802,"lng":-73.804471},"locationName":"11780 BD DE SALABERRY","gravity":"Léger","totalNumberOfVictims":1,"numberOfPedestrian":null,"numberOfCyclists":0,"weather":11,"date":"2015-08-21"},{"point":{"lat":45.524105,"lng":-73.671888},"locationName":"00475 COTE VERTU","gravity":"Dommages matériels seulement","totalNumberOfVictims":0,"numberOfPedestrian":null,"numberOfCyclists":0,"weather":11,"date":"2015-05-07"},{"point":{"lat":45.493443,"lng":-73.807135},"locationName":"04090 SOURCES","gravity":"Dommages matériels seulement","totalNumberOfVictims":0,"numberOfPedestrian":null,"numberOfCyclists":0,"weather":11,"date":"2015-09-27"},{"point":{"lat":45.922365,"lng":-73.523347},"locationName":"00740 LEPINE","gravity":"Dommages matériels seulement","totalNumberOfVictims":0,"numberOfPedestrian":null,"numberOfCyclists":0,"weather":11,"date":"2015-08-21"},{"point":{"lat":45.522355,"lng":-73.672901},"locationName":"00600 COTE VERTU","gravity":"Dommages matériels seulement","totalNumberOfVictims":0,"numberOfPedestrian":null,"numberOfCyclists":0,"weather":0,"date":"2015-01-10"},{"point":{"lat":45.494873,"lng":-73.789086},"locationName":"00100 SPRINGDALE","gravity":"Léger","totalNumberOfVictims":1,"numberOfPedestrian":null,"numberOfCyclists":0,"weather":11,"date":"2015-09-26"},{"point":{"lat":45.463524,"lng":-73.836943},"locationName":"00400 BRUNSWICK","gravity":"Dommages matériels seulement","totalNumberOfVictims":0,"numberOfPedestrian":null,"numberOfCyclists":0,"weather":11,"date":"2015-09-14"},{"point":{"lat":45.494153,"lng":-73.77966},"locationName":"01458 SUNNYBROOKE","gravity":"Dommages matériels seulement","totalNumberOfVictims":0,"numberOfPedestrian":null,"numberOfCyclists":0,"weather":12,"date":"2015-06-30"},{"point":{"lat":45.483579,"lng":-73.79627},"locationName":"03341 DES SOURCES","gravity":"Dommages matériels seulement","totalNumberOfVictims":0,"numberOfPedestrian":null,"numberOfCyclists":0,"weather":11,"date":"2015-05-27"},{"point":{"lat":45.494074,"lng":-73.80748},"locationName":"04139 DES SOURCES","gravity":"Dommages matériels seulement","totalNumberOfVictims":0,"numberOfPedestrian":null,"numberOfCyclists":0,"weather":11,"date":"2015-02-09"},{"point":{"lat":46.043559,"lng":-73.714937},"locationName":"03800 ST JEAN","gravity":"Dommages matériels seulement","totalNumberOfVictims":0,"numberOfPedestrian":null,"numberOfCyclists":0,"weather":11,"date":"2015-10-14"},{"point":{"lat":45.445023,"lng":-73.721704},"locationName":"00421 BOURKE","gravity":"Dommages matériels seulement","totalNumberOfVictims":0,"numberOfPedestrian":null,"numberOfCyclists":0,"weather":11,"date":"2015-07-09"},{"point":{"lat":45.529096,"lng":-73.671887},"locationName":"01210 CHAMERAN","gravity":"Dommages matériels seulement","totalNumberOfVictims":0,"numberOfPedestrian":null,"numberOfCyclists":0,"weather":11,"date":"2015-06-17"},{"point":{"lat":45.48954,"lng":-73.718929},"locationName":"07955 TRANS CANADIENNE","gravity":"Dommages matériels seulement","totalNumberOfVictims":0,"numberOfPedestrian":null,"numberOfCyclists":0,"weather":12,"date":"2015-05-01"},{"point":{"lat":45.494944,"lng":-73.622748},"locationName":"03800 BD ST JEAN FACE","gravity":"Léger","totalNumberOfVictims":1,"numberOfPedestrian":null,"numberOfCyclists":0,"weather":11,"date":"2015-04-14"},{"point":{"lat":45.528058,"lng":-73.669447},"locationName":"00265 COTE VERTU","gravity":"Dommages matériels seulement","totalNumberOfVictims":0,"numberOfPedestrian":null,"numberOfCyclists":0,"weather":11,"date":"2015-01-05"},{"point":{"lat":45.521026,"lng":-73.673824},"locationName":"00710 COTE VERTU","gravity":"Dommages matériels seulement","totalNumberOfVictims":0,"numberOfPedestrian":null,"numberOfCyclists":0,"weather":11,"date":"2015-01-27"},{"point":{"lat":45.510999,"lng":-73.656056},"locationName":"00465 DEVON","gravity":"Dommages matériels seulement","totalNumberOfVictims":0,"numberOfPedestrian":null,"numberOfCyclists":0,"weather":11,"date":"2015-03-24"},{"point":{"lat":45.597422,"lng":-73.526052},"locationName":"02799 MTEE ST REMI","gravity":"Dommages matériels seulement","totalNumberOfVictims":0,"numberOfPedestrian":null,"numberOfCyclists":0,"weather":12,"date":"2015-04-20"},{"point":{"lat":45.482263,"lng":-73.795011},"locationName":"03163 DES SOURCES","gravity":"Dommages matériels seulement","totalNumberOfVictims":0,"numberOfPedestrian":null,"numberOfCyclists":0,"weather":11,"date":"2015-04-01"},{"point":{"lat":45.463524,"lng":-73.836943},"locationName":"00400 BRUNSWICK","gravity":"Dommages matériels seulement","totalNumberOfVictims":0,"numberOfPedestrian":null,"numberOfCyclists":0,"weather":11,"date":"2015-10-03"},{"point":{"lat":45.482163,"lng":-73.794907},"locationName":"03051 DES SOURCES","gravity":"Grave","totalNumberOfVictims":1,"numberOfPedestrian":null,"numberOfCyclists":0,"weather":12,"date":"2015-02-06"},{"point":{"lat":45.523033,"lng":-73.660665},"locationName":"00290 FACE DESLAURIERS","gravity":"Dommages matériels seulement","totalNumberOfVictims":0,"numberOfPedestrian":null,"numberOfCyclists":0,"weather":12,"date":"2015-02-09"},{"point":{"lat":45.493516,"lng":-73.806959},"locationName":"04101 DES SOURCES","gravity":"Dommages matériels seulement","totalNumberOfVictims":0,"numberOfPedestrian":null,"numberOfCyclists":0,"weather":12,"date":"2015-12-02"},{"point":{"lat":45.451095,"lng":-73.783516},"locationName":"00017 DONEGANI","gravity":"Dommages matériels seulement","totalNumberOfVictims":0,"numberOfPedestrian":null,"numberOfCyclists":0,"weather":11,"date":"2015-06-26"},{"point":{"lat":45.482175,"lng":-73.79492},"locationName":"03065 DES SOURCES STAT","gravity":"Dommages matériels seulement","totalNumberOfVictims":0,"numberOfPedestrian":null,"numberOfCyclists":0,"weather":12,"date":"2015-12-04"},{"point":{"lat":45.586453,"lng":-73.652099},"locationName":"10333 BD GOUIN","gravity":"Dommages matériels seulement","totalNumberOfVictims":0,"numberOfPedestrian":null,"numberOfCyclists":0,"weather":17,"date":"2015-12-27"},{"point":{"lat":45.527314,"lng":-73.67672},"locationName":"01385 JULES POITRAS","gravity":"Dommages matériels seulement","totalNumberOfVictims":0,"numberOfPedestrian":null,"numberOfCyclists":0,"weather":11,"date":"2015-05-20"},{"point":{"lat":45.494855,"lng":-73.808532},"locationName":"04200 BD DES SOURCES","gravity":"Dommages matériels seulement","totalNumberOfVictims":0,"numberOfPedestrian":null,"numberOfCyclists":0,"weather":0,"date":"2015-11-09"},{"point":{"lat":45.504263,"lng":-73.664592},"locationName":"13000 COTE DE LIESSE","gravity":"Dommages matériels seulement","totalNumberOfVictims":0,"numberOfPedestrian":null,"numberOfCyclists":0,"weather":12,"date":"2015-09-15"},{"point":{"lat":45.532286,"lng":-73.564481},"locationName":"04005 BD DES SOURCES FACE AU","gravity":"Dommages matériels seulement","totalNumberOfVictims":0,"numberOfPedestrian":null,"numberOfCyclists":0,"weather":12,"date":"2015-10-17"},{"point":{"lat":45.492919,"lng":-73.809202},"locationName":"00011 CHURCHILL","gravity":"Dommages matériels seulement","totalNumberOfVictims":0,"numberOfPedestrian":null,"numberOfCyclists":0,"weather":11,"date":"2015-09-24"},{"point":{"lat":45.644389,"lng":-73.517996},"locationName":"03616 ST JEAN","gravity":"Léger","totalNumberOfVictims":1,"numberOfPedestrian":null,"numberOfCyclists":0,"weather":11,"date":"2015-06-14"},{"point":{"lat":45.461214,"lng":-73.867241},"locationName":"03882 BD ST CHARLES","gravity":"Léger","totalNumberOfVictims":1,"numberOfPedestrian":null,"numberOfCyclists":0,"weather":11,"date":"2015-01-22"},{"point":{"lat":45.52321,"lng":-73.714144},"locationName":"02075 KELLER","gravity":"Dommages matériels seulement","totalNumberOfVictims":0,"numberOfPedestrian":null,"numberOfCyclists":0,"weather":11,"date":"2015-06-24"},{"point":{"lat":45.488067,"lng":-73.593812},"locationName":"00027 BELLEROSE","gravity":"Dommages matériels seulement","totalNumberOfVictims":0,"numberOfPedestrian":null,"numberOfCyclists":0,"weather":11,"date":"2015-10-31"},{"point":{"lat":38.188082,"lng":-84.879373},"locationName":"00110 BARNETT","gravity":"Dommages matériels seulement","totalNumberOfVictims":0,"numberOfPedestrian":null,"numberOfCyclists":0,"weather":11,"date":"2015-02-28"},{"point":{"lat":45.438961,"lng":-73.737924},"locationName":"00760 LAKESHORE","gravity":"Dommages matériels seulement","totalNumberOfVictims":0,"numberOfPedestrian":null,"numberOfCyclists":0,"weather":11,"date":"2015-09-10"},{"point":{"lat":45.510837,"lng":-73.81024},"locationName":"10458 GOUIN O","gravity":"Dommages matériels seulement","totalNumberOfVictims":0,"numberOfPedestrian":null,"numberOfCyclists":0,"weather":12,"date":"2015-11-28"},{"point":{"lat":45.484024,"lng":-73.796955},"locationName":"03350 BD DES SOURCES","gravity":"Léger","totalNumberOfVictims":2,"numberOfPedestrian":null,"numberOfCyclists":0,"weather":11,"date":"2015-10-24"},{"point":{"lat":28.129063,"lng":-80.626803},"locationName":"00555 MCMILLAN","gravity":"Dommages matériels seulement","totalNumberOfVictims":0,"numberOfPedestrian":null,"numberOfCyclists":0,"weather":11,"date":"2015-08-01"},{"point":{"lat":45.523332,"lng":-73.576027},"locationName":"04149 ST JEAN OPP","gravity":"Dommages matériels seulement","totalNumberOfVictims":0,"numberOfPedestrian":null,"numberOfCyclists":0,"weather":12,"date":"2015-12-03"},{"point":{"lat":45.502595,"lng":-73.705897},"locationName":"02805 THIMENS","gravity":"Dommages matériels seulement","totalNumberOfVictims":0,"numberOfPedestrian":null,"numberOfCyclists":0,"weather":11,"date":"2015-07-09"},{"point":{"lat":45.497995,"lng":-73.703266},"locationName":"03131 COTE VERTU","gravity":"Dommages matériels seulement","totalNumberOfVictims":0,"numberOfPedestrian":null,"numberOfCyclists":0,"weather":11,"date":"2015-06-05"},{"point":{"lat":45.510717,"lng":-73.805348},"locationName":"10410 GOUIN O","gravity":"Léger","totalNumberOfVictims":1,"numberOfPedestrian":null,"numberOfCyclists":0,"weather":11,"date":"2015-11-11"},{"point":{"lat":45.482115,"lng":-73.84374},"locationName":"04063 BD ST JEAN","gravity":"Dommages matériels seulement","totalNumberOfVictims":0,"numberOfPedestrian":null,"numberOfCyclists":0,"weather":17,"date":"2015-01-08"},{"point":{"lat":45.488307,"lng":-73.819702},"locationName":"02975 LAKE FACE","gravity":"Léger","totalNumberOfVictims":1,"numberOfPedestrian":null,"numberOfCyclists":1,"weather":11,"date":"2015-08-02"},{"point":{"lat":45.485158,"lng":-73.797804},"locationName":"03347 DES SOURCES","gravity":"Léger","totalNumberOfVictims":1,"numberOfPedestrian":null,"numberOfCyclists":0,"weather":14,"date":"2015-06-28"},{"point":{"lat":45.483726,"lng":-73.807091},